[{"port_eia_id": 2244203, "state_code": "VT", "port_name": "Beecherfalls", "port_lat": 45.0106799, "port_lng": -71.50654709999999}, {"port_eia_id": 1736312, "state_code": "MA", "port_name": "Boston", "port_lat": 42.3600825, "port_lng": -71.0588801}, {"port_eia_id": 1293028, "state_code": "NY", "port_name": "Champl-Rs Pt", "port_lat": 44.9864273, "port_lng": -73.4465251}, {"port_eia_id": 1293029, "state_code": "NY", "port_name": "Buff-Niag Fl", "port_lat": 42.9397059, "port_lng": -78.7295067}, {"port_eia_id": 1293030, "state_code": "NY", "port_name": "New York", "port_lat": 40.7127753, "port_lng": -74.0059728}, {"port_eia_id": 1293031, "state_code": "NY", "port_name": "Albany", "port_lat": 42.6525793, "port_lng": -73.7562317}, {"port_eia_id": 1293032, "state_code": "NJ", "port_name": "Newark", "port_lat": 40.735657, "port_lng": -74.1723667}, {"port_eia_id": 1293033, "state_code": "NJ", "port_name": "Perth Amboy", "port_lat": 40.5067723, "port_lng": -74.2654234}, {"port_eia_id": 1293034, "state_code": "PA", "port_name": "Philadelphia", "port_lat": 39.9525839, "port_lng": -75.1652215}, {"port_eia_id": 1293035, "state_code": "PA", "port_name": "Chester", "port_lat": 39.849557, "port_lng": -75.3557457}, {"port_eia_id": 1293036, "state_code": "DE", "port_name": "Wilmington", "port_lat": 39.744655, "port_lng": -75.5483909}, {"port_eia_id": 1293037, "state_code": "PA", "port_name": "Pittsburgh", "port_lat": 40.44062479999999, "port_lng": -79.9958864}, {"port_eia_id": 1293038, "state_code": "NJ", "port_name": "Paulsboro", "port_lat": 39.830391, "port_lng": -75.2404607}, {"port_eia_id": 1293039, "state_code": "PA", "port_name": "Phil.", "port_lat": 39.9525839, "port_lng": -75.1652215}, {"port_eia_id": 1293041, "state_code": "PA", "port_name": "Marcus Hook", "port_lat": 39.8192794, "port_lng": -75.4185272}, {"port_eia_id": 1293042, "state_code": "MD", "port_name": "Baltimore", "port_lat": 39.2903848, "port_lng": -76.6121893}, {"port_eia_id": 1293043, "state_code": "VA", "port_name": "Newport News", "port_lat": 37.0870821, "port_lng": -76.4730122}, {"port_eia_id": 1293044, "state_code": "GA", "port_name": "Savannah", "port_lat": 32.0808989, "port_lng": -81.091203}, {"port_eia_id": 1377152, "state_code": "FL", "port_name": "Pt Canaveral", "port_lat": 28.4103506, "port_lng": -80.61881559999999}, {"port_eia_id": 1293045, "state_code": "AL", "port_name": "Mobile", "port_lat": 30.6953657, "port_lng": -88.0398912}, {"port_eia_id": 1293047, "state_code": "MS", "port_name": "Pascagoula", "port_lat": 30.3657552, "port_lng": -88.5561272}, {"port_eia_id": 1293048, "state_code": "LA", "port_name": "Morgan City", "port_lat": 29.6993748, "port_lng": -91.20676999999999}, {"port_eia_id": 1293049, "state_code": "LA", "port_name": "New Orleans", "port_lat": 29.95106579999999, "port_lng": -90.0715323}, {"port_eia_id": 1293050, "state_code": "AR", "port_name": "Little Rock", "port_lat": 34.7464809, "port_lng": -92.28959479999999}, {"port_eia_id": 1293051, "state_code": "LA", "port_name": "Baton Rouge", "port_lat": 30.4514677, "port_lng": -91.18714659999999}, {"port_eia_id": 1293052, "state_code": "TN", "port_name": "Memphis", "port_lat": 35.1495343, "port_lng": -90.0489801}, {"port_eia_id": 1293053, "state_code": "LA", "port_name": "Gramercy", "port_lat": 30.0474239, "port_lng": -90.6898128}, {"port_eia_id": 1293054, "state_code": "LA", "port_name": "St Rose", "port_lat": 29.9468716, "port_lng": -90.3231349}, {"port_eia_id": 1293055, "state_code": "LA", "port_name": "Good Hope", "port_lat": 29.9913148, "port_lng": -90.40063719999999}, {"port_eia_id": 1293056, "state_code": "MS", "port_name": "Vicksburg", "port_lat": 32.3526456, "port_lng": -90.877882}, {"port_eia_id": 1293057, "state_code": "LA", "port_name": "Lake Charles", "port_lat": 30.2265949, "port_lng": -93.2173758}, {"port_eia_id": 1293058, "state_code": "TX", "port_name": "Port Arthur", "port_lat": 29.8849504, "port_lng": -93.93994699999999}, {"port_eia_id": 2602953, "state_code": "TX", "port_name": "Sabine", "port_lat": 31.2974233, "port_lng": -93.8248241}, {"port_eia_id": 1293059, "state_code": "TX", "port_name": "Beaumont", "port_lat": 30.080174, "port_lng": -94.1265562}, {"port_eia_id": 1293060, "state_code": "TX", "port_name": "Hidalgo", "port_lat": 26.1003547, "port_lng": -98.2630684}, {"port_eia_id": 1293061, "state_code": "AZ", "port_name": "Nogales", "port_lat": 31.3403775, "port_lng": -110.9342532}, {"port_eia_id": 1293062, "state_code": "CA", "port_name": "Los Angeles", "port_lat": 34.0522342, "port_lng": -118.2436849}, {"port_eia_id": 1293063, "state_code": "CA", "port_name": "Long Beach", "port_lat": 33.7700504, "port_lng": -118.1937395}, {"port_eia_id": 1293064, "state_code": "CA", "port_name": "El Segundo", "port_lat": 33.9191799, "port_lng": -118.4164652}, {"port_eia_id": 1736351, "state_code": "CA", "port_name": "Ventura", "port_lat": 34.2804923, "port_lng": -119.2945199}, {"port_eia_id": 3387835, "state_code": "CA", "port_name": "San Fran Int Ap", "port_lat": 37.6213129, "port_lng": -122.3789554}, {"port_eia_id": 2477495, "state_code": "CA", "port_name": "Eureka", "port_lat": 40.8020712, "port_lng": -124.1636729}, {"port_eia_id": 1293065, "state_code": "CA", "port_name": "Sanfrancisco", "port_lat": 37.7749295, "port_lng": -122.4194155}, {"port_eia_id": 1293066, "state_code": "CA", "port_name": "Richmond", "port_lat": 37.9357576, "port_lng": -122.3477486}, {"port_eia_id": 1293067, "state_code": "CA", "port_name": "Martinez", "port_lat": 38.0193657, "port_lng": -122.1341321}, {"port_eia_id": 1293068, "state_code": "CA", "port_name": "Carquinez St", "port_lat": 38.0952276, "port_lng": -122.2336121}, {"port_eia_id": 1293069, "state_code": "OR", "port_name": "Astoria", "port_lat": 46.1878841, "port_lng": -123.8312534}, {"port_eia_id": 2386352, "state_code": "WA", "port_name": "Kalama", "port_lat": 46.0084472, "port_lng": -122.8445508}, {"port_eia_id": 1293071, "state_code": "WA", "port_name": "Tacoma", "port_lat": 47.2528768, "port_lng": -122.4442906}, {"port_eia_id": 1293073, "state_code": "WA", "port_name": "Blaine", "port_lat": 48.993723, "port_lng": -122.7471191}, {"port_eia_id": 1293074, "state_code": "WA", "port_name": "Bellingham", "port_lat": 48.7519112, "port_lng": -122.4786854}, {"port_eia_id": 1293075, "state_code": "WA", "port_name": "Everett", "port_lat": 47.9789848, "port_lng": -122.2020795}, {"port_eia_id": 2386358, "state_code": "WA", "port_name": "Port Angeles", "port_lat": 48.118146, "port_lng": -123.4307413}, {"port_eia_id": 1293076, "state_code": "WA", "port_name": "Sumas", "port_lat": 49.0001217, "port_lng": -122.2648752}, {"port_eia_id": 1293077, "state_code": "WA", "port_name": "Anacortes", "port_lat": 48.51260449999999, "port_lng": -122.6126718}, {"port_eia_id": 3533262, "state_code": "AK", "port_name": "Juneau", "port_lat": 58.3019444, "port_lng": -134.4197221}, {"port_eia_id": 1293078, "state_code": "AK", "port_name": "Anchorage", "port_lat": 61.2180556, "port_lng": -149.9002778}, {"port_eia_id": 1293079, "state_code": "HI", "port_name": "Honolu/Pearl", "port_lat": 21.3972222, "port_lng": -157.9733333}, {"port_eia_id": 2889926, "state_code": "HI", "port_name": "Honolulu Int Ap", "port_lat": 21.3245132, "port_lng": -157.9250736}, {"port_eia_id": 1293080, "state_code": "MT", "port_name": "Raymond", "port_lat": 48.8761512, "port_lng": -104.5800994}, {"port_eia_id": 1293081, "state_code": "ID", "port_name": "Eastport", "port_lat": 48.9993981, "port_lng": -116.1813115}, {"port_eia_id": 1293082, "state_code": "UT", "port_name": "Salt Lk Cty", "port_lat": 40.7607793, "port_lng": -111.8910474}, {"port_eia_id": 1293083, "state_code": "MT", "port_name": "Great Falls", "port_lat": 47.5052849, "port_lng": -111.3007715}, {"port_eia_id": 1293084, "state_code": "MT", "port_name": "Turner", "port_lat": 48.845063, "port_lng": -108.4052104}, {"port_eia_id": 1293085, "state_code": "CO", "port_name": "Denver", "port_lat": 39.7392358, "port_lng": -104.990251}, {"port_eia_id": 1293086, "state_code": "ID", "port_name": "Porthill", "port_lat": 48.99751, "port_lng": -116.4980269}, {"port_eia_id": 1293087, "state_code": "MT", "port_name": "Scobey", "port_lat": 48.7925242, "port_lng": -105.4208268}, {"port_eia_id": 1293088, "state_code": "MT", "port_name": "Sweetgrass", "port_lat": 48.9961099, "port_lng": -111.9675751}, {"port_eia_id": 1293089, "state_code": "MT", "port_name": "Piegan", "port_lat": 48.4346971, "port_lng": -112.6945072}, {"port_eia_id": 1293090, "state_code": "MT", "port_name": "Del Bonita", "port_lat": 48.9987334, "port_lng": -112.7879394}, {"port_eia_id": 1293091, "state_code": "WY", "port_name": "Natrona Aprt", "port_lat": 43.0296874, "port_lng": -106.8092162}, {"port_eia_id": 1293092, "state_code": "ND", "port_name": "Pembina", "port_lat": 48.9663765, "port_lng": -97.2436761}, {"port_eia_id": 1293093, "state_code": "MN", "port_name": "Noyes", "port_lat": 48.9974874, "port_lng": -97.2045066}, {"port_eia_id": 1293094, "state_code": "ND", "port_name": "Portal", "port_lat": 48.9958637, "port_lng": -102.5496127}, {"port_eia_id": 1293095, "state_code": "ND", "port_name": "Neche", "port_lat": 48.9861027, "port_lng": -97.5548}, {"port_eia_id": 2831451, "state_code": "ND", "port_name": "Ambrose", "port_lat": 48.9539222, "port_lng": -103.4826921}, {"port_eia_id": 1293097, "state_code": "ND", "port_name": "Sherwood", "port_lat": 48.9600187, "port_lng": -101.632661}, {"port_eia_id": 1293098, "state_code": "ND", "port_name": "Fortuna", "port_lat": 48.9100315, "port_lng": -103.7793697}, {"port_eia_id": 1293099, "state_code": "MN", "port_name": "Pinecreek", "port_lat": 48.978333, "port_lng": -95.9425}, {"port_eia_id": 1293100, "state_code": "MN", "port_name": "Minneapolis", "port_lat": 44.977753, "port_lng": -93.2650108}, {"port_eia_id": 1293101, "state_code": "MN", "port_name": "Duluth", "port_lat": 46.78667189999999, "port_lng": -92.1004852}, {"port_eia_id": 1293102, "state_code": "MN", "port_name": "Inter. Falls", "port_lat": 48.6023149, "port_lng": -93.4040679}, {"port_eia_id": 1293103, "state_code": "WI", "port_name": "Superior", "port_lat": 46.7207737, "port_lng": -92.10407959999999}, {"port_eia_id": 1293104, "state_code": "MI", "port_name": "Detroit", "port_lat": 42.331427, "port_lng": -83.0457538}, {"port_eia_id": 1293105, "state_code": "MI", "port_name": "Port Huron", "port_lat": 42.9708634, "port_lng": -82.42491419999999}, {"port_eia_id": 1293106, "state_code": "MI", "port_name": "Sault St-Mar", "port_lat": 46.49771150000001, "port_lng": -84.3475876}, {"port_eia_id": 2630072, "state_code": "MI", "port_name": "Escanaba", "port_lat": 45.74524659999999, "port_lng": -87.06458010000001}, {"port_eia_id": 2324744, "state_code": "MI", "port_name": "Mackinac Isl", "port_lat": 45.8491796, "port_lng": -84.6189339}, {"port_eia_id": 1293107, "state_code": "IL", "port_name": "Chicago", "port_lat": 41.8781136, "port_lng": -87.6297982}, {"port_eia_id": 1293108, "state_code": "IL", "port_name": "Peoria", "port_lat": 40.6936488, "port_lng": -89.5889864}, {"port_eia_id": 1293109, "state_code": "NE", "port_name": "Omaha", "port_lat": 41.2565369, "port_lng": -95.9345034}, {"port_eia_id": 2545985, "state_code": "IN", "port_name": "East Chicago", "port_lat": 41.63920239999999, "port_lng": -87.4547635}, {"port_eia_id": 2545986, "state_code": "IN", "port_name": "Gary", "port_lat": 41.6020403, "port_lng": -87.3371523}, {"port_eia_id": 2545987, "state_code": "IL", "port_name": "O'Hare Int Ap", "port_lat": 41.9741625, "port_lng": -87.9073214}, {"port_eia_id": 2887244, "state_code": "OH", "port_name": "Cinci-Lawrnburg", "port_lat": 39.090891, "port_lng": -84.8499504}, {"port_eia_id": 1293112, "state_code": "OH", "port_name": "Toledo-Sandusky", "port_lat": 41.4383173, "port_lng": -82.71623629999999}, {"port_eia_id": 1293113, "state_code": "KY", "port_name": "Port Of Entry-Owensboro", "port_lat": null, "port_lng": null}, {"port_eia_id": 3109746, "state_code": "MO", "port_name": "Kansas City", "port_lat": 39.0997265, "port_lng": -94.5785667}, {"port_eia_id": 1293114, "state_code": "MO", "port_name": "St Louis", "port_lat": 38.6270025, "port_lng": -90.19940419999999}, {"port_eia_id": 1293116, "state_code": "VI", "port_name": "Christianstd", "port_lat": 17.7466397, "port_lng": -64.7031977}, {"port_eia_id": 1293117, "state_code": "FL", "port_name": "Pt Everglade", "port_lat": 26.0850697, "port_lng": -80.116658}, {"port_eia_id": 1293118, "state_code": "TX", "port_name": "Houston", "port_lat": 29.7604267, "port_lng": -95.3698028}, {"port_eia_id": 1293119, "state_code": "TX", "port_name": "Texas City", "port_lat": 29.383845, "port_lng": -94.9027002}, {"port_eia_id": 1293120, "state_code": "TX", "port_name": "Galveston", "port_lat": 29.3013479, "port_lng": -94.7976958}, {"port_eia_id": 1293121, "state_code": "TX", "port_name": "Freeport", "port_lat": 28.9541368, "port_lng": -95.35966169999999}, {"port_eia_id": 1293122, "state_code": "TX", "port_name": "Corpus Chris", "port_lat": 27.8005828, "port_lng": -97.39638099999999}, {"port_eia_id": 1437142, "state_code": "DC", "port_name": "Washington Dc", "port_lat": 38.9071923, "port_lng": -77.0368707}, {"port_eia_id": 1293123, "state_code": "OK", "port_name": "Oklahoma Cty", "port_lat": 35.4675602, "port_lng": -97.5164276}, {"port_eia_id": 1293124, "state_code": "OK", "port_name": "Tulsa", "port_lat": 36.1539816, "port_lng": -95.99277500000001}, {"port_eia_id": 1293125, "state_code": "TX", "port_name": "Austin", "port_lat": 30.267153, "port_lng": -97.7430608}]