{
"type": "FeatureCollection",
"name": "Oil_Refineries",
"crs": { "type": "name", "properties": { "name": "urn:ogc:def:crs:OGC:1.3:CRS84" } },
"features": [
{ "type": "Feature", "properties": { "OBJECTID": 1, "REF_ID": "REF210002", "NAME": "SOMERSET", "ADDRESS": "300 REFINERY ROAD", "CITY": "SOMERSET", "STATE": "KY", "ZIP": "42501", "ZIP4": "2974", "TELEPHONE": "(606) 679-6301", "TYPE": "VERY SMALL REFINERY", "STATUS": "IN SERVICE", "POPULATION": 34, "COUNTY": "PULASKI", "COUNTYFIPS": "21199", "COUNTRY": "USA", "LATITUDE": 37.07113, "LONGITUDE": -84.60951, "NAICS_CODE": "324110", "NAICS_DESC": "PETROLEUM REFINERIES", "SOURCE": "EIA-820; EPA ENVIROFACTS", "SOURCEDATE": "2017\/01\/01 00:00:00", "VAL_METHOD": "IMAGERY\/OTHER", "VAL_DATE": "2018\/01\/31 00:00:00", "WEBSITE": "http:\/\/www.continentalrefiningco.com", "OWNER": "CONTINENTAL REFINING CO LLC", "OPERNAME": "CONTINENTAL REFINING COMPANY LLC", "RMP_ID": "20583", "EPA_ID": "100000167277", "POSREL": "WITHIN 166 FEET", "CAPACITY": 5500, "US_RANK": 134, "CRUDE": 5500, "VACDIST": 0, "COKING": 0, "THERMALOP": 0, "CATCRACK": 0, "CATREFORM": 1000, "CATHYDCRCK": 0, "CATHYDTRT": 2300, "ALKY": 0, "POLDIM": 0, "AROMATIC": 0, "ISOMER": 0, "LUBES": 0, "OXYGENATES": 0, "HYDRGN": 0, "COKE": 0, "SULFUR": 0, "ASPHALT": 0 }, "geometry": { "type": "Point", "coordinates": [ -84.60951, 37.07113 ] } },
{ "type": "Feature", "properties": { "OBJECTID": 2, "REF_ID": "REF490003", "NAME": "WOODS CROSS", "ADDRESS": "2355 SOUTH 1100 WEST", "CITY": "WOODS CROSS", "STATE": "UT", "ZIP": "84087", "ZIP4": "NOT AVAILABLE", "TELEPHONE": "(801) 298-3211", "TYPE": "VERY SMALL SIMPLE REFINERY", "STATUS": "IN SERVICE", "POPULATION": 45, "COUNTY": "DAVIS", "COUNTYFIPS": "49011", "COUNTRY": "USA", "LATITUDE": 40.86776, "LONGITUDE": -111.91, "NAICS_CODE": "324110", "NAICS_DESC": "PETROLEUM REFINERIES", "SOURCE": "EIA-820; EPA TRI", "SOURCEDATE": "2017\/01\/01 00:00:00", "VAL_METHOD": "IMAGERY\/OTHER", "VAL_DATE": "2018\/01\/31 00:00:00", "WEBSITE": "http:\/\/silvereagleenergy.com", "OWNER": "SILVER EAGLE REFINING INC", "OPERNAME": "SILVER EAGLE REFINING", "RMP_ID": "33515", "EPA_ID": "100000180699", "POSREL": "WITHIN 166 FEET", "CAPACITY": 15000, "US_RANK": 122, "CRUDE": 15000, "VACDIST": 7000, "COKING": 0, "THERMALOP": 0, "CATCRACK": 0, "CATREFORM": 0, "CATHYDCRCK": 0, "CATHYDTRT": 4000, "ALKY": 0, "POLDIM": 0, "AROMATIC": 0, "ISOMER": 0, "LUBES": 0, "OXYGENATES": 0, "HYDRGN": 0, "COKE": 0, "SULFUR": 0, "ASPHALT": 0 }, "geometry": { "type": "Point", "coordinates": [ -111.91, 40.86776 ] } },
{ "type": "Feature", "properties": { "OBJECTID": 3, "REF_ID": "REF080004", "NAME": "COMMERCE CITY EAST", "ADDRESS": "5801 BRIGHTON BLVD", "CITY": "COMMERCE CITY", "STATE": "CO", "ZIP": "80022", "ZIP4": "NOT AVAILABLE", "TELEPHONE": "(303) 286-5788", "TYPE": "SMALL SIMPLE REFINERY", "STATUS": "IN SERVICE", "POPULATION": 420, "COUNTY": "ADAMS", "COUNTYFIPS": "08001", "COUNTRY": "USA", "LATITUDE": 39.80175, "LONGITUDE": -104.94518, "NAICS_CODE": "324110", "NAICS_DESC": "PETROLEUM REFINERIES", "SOURCE": "EIA-820; EPA TRI", "SOURCEDATE": "2017\/01\/01 00:00:00", "VAL_METHOD": "IMAGERY\/OTHER", "VAL_DATE": "2018\/01\/31 00:00:00", "WEBSITE": "http:\/\/www.suncor.com", "OWNER": "SUNCOR ENERGY INC", "OPERNAME": "SUNCOR ENERGY (USA) INC", "RMP_ID": "38031", "EPA_ID": "100000119347", "POSREL": "WITHIN 166 FEET", "CAPACITY": 36000, "US_RANK": 107, "CRUDE": 36000, "VACDIST": 8500, "COKING": 0, "THERMALOP": 0, "CATCRACK": 9000, "CATREFORM": 10000, "CATHYDCRCK": 0, "CATHYDTRT": 11000, "ALKY": 0, "POLDIM": 0, "AROMATIC": 0, "ISOMER": 1970, "LUBES": 0, "OXYGENATES": 0, "HYDRGN": 0, "COKE": 0, "SULFUR": 2, "ASPHALT": 0 }, "geometry": { "type": "Point", "coordinates": [ -104.94518, 39.80175 ] } },
{ "type": "Feature", "properties": { "OBJECTID": 4, "REF_ID": "REF480005", "NAME": "SAN ANTONIO", "ADDRESS": "7811 S PRESA STREET", "CITY": "SAN ANTONIO", "STATE": "TX", "ZIP": "78223", "ZIP4": "3547", "TELEPHONE": "(210) 918-7414", "TYPE": "SMALL LUBRICANTS REFINERY", "STATUS": "IN SERVICE", "POPULATION": 50, "COUNTY": "BEXAR", "COUNTYFIPS": "48029", "COUNTRY": "USA", "LATITUDE": 29.34757, "LONGITUDE": -98.46019, "NAICS_CODE": "324110", "NAICS_DESC": "PETROLEUM REFINERIES", "SOURCE": "EIA-820; EPA TRI", "SOURCEDATE": "2017\/01\/01 00:00:00", "VAL_METHOD": "IMAGERY\/OTHER", "VAL_DATE": "2018\/01\/31 00:00:00", "WEBSITE": "http:\/\/www.calumetspecialty.com", "OWNER": "CALUMET SPECIALTY PRODUCTS PARTNERS, L.P.", "OPERNAME": "CALUMET LUBRICANTS CO", "RMP_ID": "50434", "EPA_ID": "100000200846", "POSREL": "WITHIN 166 FEET", "CAPACITY": 20000, "US_RANK": 117, "CRUDE": 20000, "VACDIST": 0, "COKING": 0, "THERMALOP": 0, "CATCRACK": 0, "CATREFORM": 5600, "CATHYDCRCK": 0, "CATHYDTRT": 14000, "ALKY": 0, "POLDIM": 0, "AROMATIC": 0, "ISOMER": 0, "LUBES": 0, "OXYGENATES": 0, "HYDRGN": 0, "COKE": 0, "SULFUR": 0, "ASPHALT": 0 }, "geometry": { "type": "Point", "coordinates": [ -98.46019, 29.34757 ] } },
{ "type": "Feature", "properties": { "OBJECTID": 5, "REF_ID": "REF340007", "NAME": "PAULSBORO", "ADDRESS": "800 BILLINGSPORT ROAD", "CITY": "PAULSBORO", "STATE": "NJ", "ZIP": "08027", "ZIP4": "1036", "TELEPHONE": "(856) 224-4354", "TYPE": "LARGE HIGHLY COMPLEX REFINERY", "STATUS": "IN SERVICE", "POPULATION": 427, "COUNTY": "GLOUCESTER", "COUNTYFIPS": "34015", "COUNTRY": "USA", "LATITUDE": 39.84038, "LONGITUDE": -75.25681, "NAICS_CODE": "324110", "NAICS_DESC": "PETROLEUM REFINERIES", "SOURCE": "EIA-820; EPA TRI", "SOURCEDATE": "2017\/01\/01 00:00:00", "VAL_METHOD": "IMAGERY\/OTHER", "VAL_DATE": "2018\/01\/31 00:00:00", "WEBSITE": "http:\/\/www.pbfenergy.com", "OWNER": "PBF ENERGY CO LLC", "OPERNAME": "PAULSBORO REFINING CO LLC", "RMP_ID": "51876", "EPA_ID": "100000056734", "POSREL": "WITHIN 166 FEET", "CAPACITY": 160000, "US_RANK": 44, "CRUDE": 160000, "VACDIST": 90000, "COKING": 26500, "THERMALOP": 0, "CATCRACK": 54000, "CATREFORM": 28500, "CATHYDCRCK": 0, "CATHYDTRT": 144100, "ALKY": 11200, "POLDIM": 0, "AROMATIC": 0, "ISOMER": 0, "LUBES": 12000, "OXYGENATES": 0, "HYDRGN": 9, "COKE": 7500, "SULFUR": 280, "ASPHALT": 21000 }, "geometry": { "type": "Point", "coordinates": [ -75.25681, 39.84038 ] } },
{ "type": "Feature", "properties": { "OBJECTID": 6, "REF_ID": "REF480008", "NAME": "TEXAS CITY", "ADDRESS": "1301 LOOP 197 SOUTH", "CITY": "TEXAS CITY", "STATE": "TX", "ZIP": "77590", "ZIP4": "NOT AVAILABLE", "TELEPHONE": "(409) 948-7296", "TYPE": "LARGE COMPLEX REFINERY", "STATUS": "IN SERVICE", "POPULATION": 509, "COUNTY": "GALVESTON", "COUNTYFIPS": "48167", "COUNTRY": "USA", "LATITUDE": 29.36763, "LONGITUDE": -94.90828, "NAICS_CODE": "324110", "NAICS_DESC": "PETROLEUM REFINERIES", "SOURCE": "EIA-820; EPA TRI", "SOURCEDATE": "2017\/01\/01 00:00:00", "VAL_METHOD": "IMAGERY\/OTHER", "VAL_DATE": "2018\/01\/31 00:00:00", "WEBSITE": "http:\/\/www.valero.com", "OWNER": "VALERO ENERGY CORP", "OPERNAME": "VALERO REFINING CO TEXAS LP", "RMP_ID": "51895", "EPA_ID": "100000107886", "POSREL": "WITHIN 166 FEET", "CAPACITY": 225000, "US_RANK": 32, "CRUDE": 225000, "VACDIST": 133500, "COKING": 50825, "THERMALOP": 0, "CATCRACK": 81700, "CATREFORM": 17195, "CATHYDCRCK": 0, "CATHYDTRT": 286000, "ALKY": 14700, "POLDIM": 0, "AROMATIC": 0, "ISOMER": 6500, "LUBES": 0, "OXYGENATES": 0, "HYDRGN": 0, "COKE": 19000, "SULFUR": 680, "ASPHALT": 0 }, "geometry": { "type": "Point", "coordinates": [ -94.90828, 29.36763 ] } },
{ "type": "Feature", "properties": { "OBJECTID": 7, "REF_ID": "REF480009", "NAME": "TEXAS CITY", "ADDRESS": "502 10TH STREET SOUTH", "CITY": "TEXAS CITY", "STATE": "TX", "ZIP": "77590", "ZIP4": "NOT AVAILABLE", "TELEPHONE": "(409) 943-7270", "TYPE": "SMALL MEDIUM COMPLEXITY REFINERY THAT PROCESSES SWEET CRUDE", "STATUS": "IN SERVICE", "POPULATION": 276, "COUNTY": "GALVESTON", "COUNTYFIPS": "48167", "COUNTRY": "USA", "LATITUDE": 29.37542, "LONGITUDE": -94.90798, "NAICS_CODE": "324110", "NAICS_DESC": "PETROLEUM REFINERIES", "SOURCE": "EIA-820; EPA TRI", "SOURCEDATE": "2017\/01\/01 00:00:00", "VAL_METHOD": "IMAGERY\/OTHER", "VAL_DATE": "2018\/01\/31 00:00:00", "WEBSITE": "https:\/\/www.marathonpetroleum.com", "OWNER": "MARATHON PETROLEUM CORP", "OPERNAME": "MARATHON PETROLEUM CO LP", "RMP_ID": "52497", "EPA_ID": "100000059214", "POSREL": "WITHIN 166 FEET", "CAPACITY": 86000, "US_RANK": 73, "CRUDE": 86000, "VACDIST": 0, "COKING": 0, "THERMALOP": 0, "CATCRACK": 55600, "CATREFORM": 10500, "CATHYDCRCK": 0, "CATHYDTRT": 0, "ALKY": 14500, "POLDIM": 0, "AROMATIC": 2900, "ISOMER": 0, "LUBES": 0, "OXYGENATES": 0, "HYDRGN": 0, "COKE": 0, "SULFUR": 40, "ASPHALT": 0 }, "geometry": { "type": "Point", "coordinates": [ -94.90798, 29.37542 ] } },
{ "type": "Feature", "properties": { "OBJECTID": 8, "REF_ID": "REF480010", "NAME": "BAYTOWN", "ADDRESS": "2800 DECKER DR\/4500 BAYWAY DRIVE", "CITY": "BAYTOWN", "STATE": "TX", "ZIP": "77520", "ZIP4": "2127", "TELEPHONE": "(281) 834-7342", "TYPE": "VERY LARGE AND HIGHLY COMPLEX REFINERY", "STATUS": "IN SERVICE", "POPULATION": 1307, "COUNTY": "HARRIS", "COUNTYFIPS": "48201", "COUNTRY": "USA", "LATITUDE": 29.74285, "LONGITUDE": -95.01026, "NAICS_CODE": "324110", "NAICS_DESC": "PETROLEUM REFINERIES", "SOURCE": "EIA-820; EPA TRI", "SOURCEDATE": "2017\/01\/01 00:00:00", "VAL_METHOD": "IMAGERY\/OTHER", "VAL_DATE": "2018\/01\/31 00:00:00", "WEBSITE": "http:\/\/www.exxonmobilchemical.com", "OWNER": "EXXON MOBIL CORP", "OPERNAME": "EXXONMOBIL REFINING & SUPPLY CO", "RMP_ID": "52558", "EPA_ID": "100000062905", "POSREL": "WITHIN 166 FEET", "CAPACITY": 560500, "US_RANK": 2, "CRUDE": 560500, "VACDIST": 297000, "COKING": 91300, "THERMALOP": 0, "CATCRACK": 212500, "CATREFORM": 120000, "CATHYDCRCK": 26500, "CATHYDTRT": 794000, "ALKY": 41000, "POLDIM": 0, "AROMATIC": 0, "ISOMER": 0, "LUBES": 28000, "OXYGENATES": 0, "HYDRGN": 0, "COKE": 22750, "SULFUR": 1828, "ASPHALT": 0 }, "geometry": { "type": "Point", "coordinates": [ -95.01026, 29.74285 ] } },
{ "type": "Feature", "properties": { "OBJECTID": 9, "REF_ID": "REF220011", "NAME": "CHALMETTE", "ADDRESS": "500 WEST ST. BERNARD HWY", "CITY": "CHALMETTE", "STATE": "LA", "ZIP": "70043", "ZIP4": "NOT AVAILABLE", "TELEPHONE": "(504) 281-1409", "TYPE": "LARGE COMPLEX REFINERY", "STATUS": "IN SERVICE", "POPULATION": 625, "COUNTY": "ST. BERNARD", "COUNTYFIPS": "22087", "COUNTRY": "USA", "LATITUDE": 29.93358, "LONGITUDE": -89.96916, "NAICS_CODE": "324110", "NAICS_DESC": "PETROLEUM REFINERIES", "SOURCE": "EIA-820; EPA TRI", "SOURCEDATE": "2017\/01\/01 00:00:00", "VAL_METHOD": "IMAGERY\/OTHER", "VAL_DATE": "2018\/01\/31 00:00:00", "WEBSITE": "http:\/\/corporate.exxonmobil.com", "OWNER": "PBF ENERGY CO LLC", "OPERNAME": "CHALMETTE REFINING LLC", "RMP_ID": "52710", "EPA_ID": "100000093515", "POSREL": "WITHIN 166 FEET", "CAPACITY": 190000, "US_RANK": 37, "CRUDE": 190000, "VACDIST": 169000, "COKING": 26000, "THERMALOP": 0, "CATCRACK": 68000, "CATREFORM": 19000, "CATHYDCRCK": 0, "CATHYDTRT": 188600, "ALKY": 16800, "POLDIM": 0, "AROMATIC": 10500, "ISOMER": 0, "LUBES": 0, "OXYGENATES": 0, "HYDRGN": 0, "COKE": 9000, "SULFUR": 920, "ASPHALT": 10000 }, "geometry": { "type": "Point", "coordinates": [ -89.96916, 29.93358 ] } },
{ "type": "Feature", "properties": { "OBJECTID": 10, "REF_ID": "REF390012", "NAME": "TOLEDO", "ADDRESS": "4001 CEDAR POINT ROAD", "CITY": "OREGON", "STATE": "OH", "ZIP": "43616", "ZIP4": "NOT AVAILABLE", "TELEPHONE": "(419) 226-1475", "TYPE": "MEDIUM COMPLEX REFINERY", "STATUS": "IN SERVICE", "POPULATION": 465, "COUNTY": "LUCAS", "COUNTYFIPS": "39095", "COUNTRY": "USA", "LATITUDE": 41.67947, "LONGITUDE": -83.45156, "NAICS_CODE": "324110", "NAICS_DESC": "PETROLEUM REFINERIES", "SOURCE": "EIA-820; EPA TRI", "SOURCEDATE": "2017\/01\/01 00:00:00", "VAL_METHOD": "IMAGERY\/OTHER", "VAL_DATE": "2018\/01\/31 00:00:00", "WEBSITE": "http:\/\/www.huskyenergy.com", "OWNER": "BP HUSKY REFINING LLC", "OPERNAME": "BP-HUSKY REFINING LLC", "RMP_ID": "53062", "EPA_ID": "100000088683", "POSREL": "WITHIN 166 FEET", "CAPACITY": 153000, "US_RANK": 48, "CRUDE": 153000, "VACDIST": 71500, "COKING": 32300, "THERMALOP": 0, "CATCRACK": 52400, "CATREFORM": 40500, "CATHYDCRCK": 28600, "CATHYDTRT": 113000, "ALKY": 11500, "POLDIM": 0, "AROMATIC": 0, "ISOMER": 0, "LUBES": 0, "OXYGENATES": 0, "HYDRGN": 0, "COKE": 10000, "SULFUR": 353, "ASPHALT": 9000 }, "geometry": { "type": "Point", "coordinates": [ -83.45156, 41.67947 ] } },
{ "type": "Feature", "properties": { "OBJECTID": 11, "REF_ID": "REF480013", "NAME": "THREE RIVERS", "ADDRESS": "301 LEROY STREET", "CITY": "THREE RIVERS", "STATE": "TX", "ZIP": "78071", "ZIP4": "0490", "TELEPHONE": "(361) 786-8242", "TYPE": "MEDIUM SIZED MEDIUM COMPLEXITY REFINERY", "STATUS": "IN SERVICE", "POPULATION": 302, "COUNTY": "LIVE OAK", "COUNTYFIPS": "48297", "COUNTRY": "USA", "LATITUDE": 28.45728, "LONGITUDE": -98.18771, "NAICS_CODE": "324110", "NAICS_DESC": "PETROLEUM REFINERIES", "SOURCE": "EIA-820; EPA TRI", "SOURCEDATE": "2017\/01\/01 00:00:00", "VAL_METHOD": "IMAGERY\/OTHER", "VAL_DATE": "2018\/01\/31 00:00:00", "WEBSITE": "http:\/\/www.valero.com", "OWNER": "VALERO ENERGY CORP", "OPERNAME": "VALERO ENERGY CORPORATION", "RMP_ID": "53371", "EPA_ID": "100000093445", "POSREL": "WITHIN 166 FEET", "CAPACITY": 89000, "US_RANK": 71, "CRUDE": 89000, "VACDIST": 33500, "COKING": 0, "THERMALOP": 0, "CATCRACK": 23030, "CATREFORM": 32757, "CATHYDCRCK": 27440, "CATHYDTRT": 79000, "ALKY": 6500, "POLDIM": 0, "AROMATIC": 10800, "ISOMER": 6000, "LUBES": 1900, "OXYGENATES": 0, "HYDRGN": 0, "COKE": 0, "SULFUR": 134, "ASPHALT": 0 }, "geometry": { "type": "Point", "coordinates": [ -98.18771, 28.45728 ] } },
{ "type": "Feature", "properties": { "OBJECTID": 12, "REF_ID": "REF480014", "NAME": "HOUSTON", "ADDRESS": "9701 MANCHESTER", "CITY": "HOUSTON", "STATE": "TX", "ZIP": "77012", "ZIP4": "NOT AVAILABLE", "TELEPHONE": "(713) 923-3378", "TYPE": "LARGE COMPLEX REFINERY", "STATUS": "IN SERVICE", "POPULATION": 340, "COUNTY": "HARRIS", "COUNTYFIPS": "48201", "COUNTRY": "USA", "LATITUDE": 29.72181, "LONGITUDE": -95.2536, "NAICS_CODE": "324110", "NAICS_DESC": "PETROLEUM REFINERIES", "SOURCE": "EIA-820; EPA TRI", "SOURCEDATE": "2017\/01\/01 00:00:00", "VAL_METHOD": "IMAGERY\/OTHER", "VAL_DATE": "2018\/01\/31 00:00:00", "WEBSITE": "http:\/\/www.valero.com", "OWNER": "VALERO ENERGY CORP", "OPERNAME": "VALERO REFINING CO TEXAS LP", "RMP_ID": "54001", "EPA_ID": "100000084605", "POSREL": "WITHIN 166 FEET", "CAPACITY": 191000, "US_RANK": 36, "CRUDE": 191000, "VACDIST": 38000, "COKING": 0, "THERMALOP": 0, "CATCRACK": 68300, "CATREFORM": 0, "CATHYDCRCK": 64400, "CATHYDTRT": 57600, "ALKY": 11900, "POLDIM": 0, "AROMATIC": 0, "ISOMER": 0, "LUBES": 0, "OXYGENATES": 0, "HYDRGN": 0, "COKE": 0, "SULFUR": 336, "ASPHALT": 0 }, "geometry": { "type": "Point", "coordinates": [ -95.2536, 29.72181 ] } },
{ "type": "Feature", "properties": { "OBJECTID": 13, "REF_ID": "REF560015", "NAME": "SINCLAIR", "ADDRESS": "100 E LINCOLN AVENUE (EAST LINCOLN HIGHWAY)", "CITY": "SINCLAIR", "STATE": "WY", "ZIP": "82334", "ZIP4": "NOT AVAILABLE", "TELEPHONE": "(307) 328-3548", "TYPE": "MEDIUM COMPLEX REFINERY", "STATUS": "IN SERVICE", "POPULATION": 332, "COUNTY": "CARBON", "COUNTYFIPS": "56007", "COUNTRY": "USA", "LATITUDE": 41.78212, "LONGITUDE": -107.10722, "NAICS_CODE": "324110", "NAICS_DESC": "PETROLEUM REFINERIES", "SOURCE": "EIA-820; EPA TRI", "SOURCEDATE": "2017\/01\/01 00:00:00", "VAL_METHOD": "IMAGERY\/OTHER", "VAL_DATE": "2018\/01\/31 00:00:00", "WEBSITE": "http:\/\/www.sinclairoil.com", "OWNER": "SINCLAIR OIL CORP", "OPERNAME": "SINCLAIR WYOMING REFINING CO", "RMP_ID": "54048", "EPA_ID": "100000116867", "POSREL": "WITHIN 166 FEET", "CAPACITY": 85000, "US_RANK": 76, "CRUDE": 85000, "VACDIST": 41000, "COKING": 18000, "THERMALOP": 0, "CATCRACK": 20600, "CATREFORM": 12600, "CATHYDCRCK": 15000, "CATHYDTRT": 72000, "ALKY": 4500, "POLDIM": 0, "AROMATIC": 0, "ISOMER": 0, "LUBES": 0, "OXYGENATES": 0, "HYDRGN": 52, "COKE": 7000, "SULFUR": 207, "ASPHALT": 8000 }, "geometry": { "type": "Point", "coordinates": [ -107.10722, 41.78212 ] } },
{ "type": "Feature", "properties": { "OBJECTID": 14, "REF_ID": "REF480016", "NAME": "TYLER", "ADDRESS": "1702 E COMMERCE STREET", "CITY": "TYLER", "STATE": "TX", "ZIP": "75702", "ZIP4": "NOT AVAILABLE", "TELEPHONE": "(903) 579-3404", "TYPE": "MEDIUM SIZED MEDIUM COMPLEXITY REFINERY", "STATUS": "IN SERVICE", "POPULATION": 254, "COUNTY": "SMITH", "COUNTYFIPS": "48423", "COUNTRY": "USA", "LATITUDE": 32.36172, "LONGITUDE": -95.2797, "NAICS_CODE": "324110", "NAICS_DESC": "PETROLEUM REFINERIES", "SOURCE": "EIA-820; EPA TRI", "SOURCEDATE": "2017\/01\/01 00:00:00", "VAL_METHOD": "IMAGERY\/OTHER", "VAL_DATE": "2018\/01\/31 00:00:00", "WEBSITE": "http:\/\/www.delekus.com", "OWNER": "DELEK GROUP LTD", "OPERNAME": "DELEK REFINING LTD", "RMP_ID": "54266", "EPA_ID": "100000077025", "POSREL": "WITHIN 166 FEET", "CAPACITY": 72000, "US_RANK": 86, "CRUDE": 72000, "VACDIST": 28000, "COKING": 6000, "THERMALOP": 0, "CATCRACK": 19000, "CATREFORM": 17000, "CATHYDCRCK": 0, "CATHYDTRT": 77000, "ALKY": 4700, "POLDIM": 0, "AROMATIC": 0, "ISOMER": 0, "LUBES": 0, "OXYGENATES": 0, "HYDRGN": 0, "COKE": 1500, "SULFUR": 39, "ASPHALT": 0 }, "geometry": { "type": "Point", "coordinates": [ -95.2797, 32.36172 ] } },
{ "type": "Feature", "properties": { "OBJECTID": 15, "REF_ID": "REF060017", "NAME": "MARTINEZ", "ADDRESS": "3485 PACHECO BLVD", "CITY": "MARTINEZ", "STATE": "CA", "ZIP": "94553", "ZIP4": "NOT AVAILABLE", "TELEPHONE": "(925) 313-3462", "TYPE": "LARGE HIGHLY COMPLEX REFINERY", "STATUS": "IN SERVICE", "POPULATION": 774, "COUNTY": "CONTRA COSTA", "COUNTYFIPS": "06013", "COUNTRY": "USA", "LATITUDE": 38.01844, "LONGITUDE": -122.11327, "NAICS_CODE": "324110", "NAICS_DESC": "PETROLEUM REFINERIES", "SOURCE": "EIA-820; EPA TRI", "SOURCEDATE": "2017\/01\/01 00:00:00", "VAL_METHOD": "IMAGERY\/OTHER", "VAL_DATE": "2018\/01\/31 00:00:00", "WEBSITE": "http:\/\/www.shell.us", "OWNER": "ROYAL DUTCH\/SHELL GROUP", "OPERNAME": "SHELL OIL PRODUCTS US", "RMP_ID": "54849", "EPA_ID": "100000098164", "POSREL": "WITHIN 166 FEET", "CAPACITY": 156400, "US_RANK": 47, "CRUDE": 156400, "VACDIST": 102000, "COKING": 45200, "THERMALOP": 0, "CATCRACK": 67400, "CATREFORM": 29800, "CATHYDCRCK": 39600, "CATHYDTRT": 268000, "ALKY": 12500, "POLDIM": 0, "AROMATIC": 0, "ISOMER": 15000, "LUBES": 0, "OXYGENATES": 0, "HYDRGN": 193, "COKE": 9000, "SULFUR": 413, "ASPHALT": 0 }, "geometry": { "type": "Point", "coordinates": [ -122.11327, 38.01844 ] } },
{ "type": "Feature", "properties": { "OBJECTID": 16, "REF_ID": "REF480018", "NAME": "SUNRAY", "ADDRESS": "6701 FM 119", "CITY": "SUNRAY", "STATE": "TX", "ZIP": "79029", "ZIP4": "NOT AVAILABLE", "TELEPHONE": "(806) 935-1354", "TYPE": "MEDIUM COMPLEX REFINERY", "STATUS": "IN SERVICE", "POPULATION": 435, "COUNTY": "MOORE", "COUNTYFIPS": "48341", "COUNTRY": "USA", "LATITUDE": 35.95528, "LONGITUDE": -101.88038, "NAICS_CODE": "324110", "NAICS_DESC": "PETROLEUM REFINERIES", "SOURCE": "EIA-820; EPA TRI", "SOURCEDATE": "2017\/01\/01 00:00:00", "VAL_METHOD": "IMAGERY\/OTHER", "VAL_DATE": "2018\/01\/31 00:00:00", "WEBSITE": "http:\/\/www.valero.com", "OWNER": "VALERO ENERGY CORP", "OPERNAME": "VALERO ENERGY CORPORATION", "RMP_ID": "55630", "EPA_ID": "100000147913", "POSREL": "WITHIN 166 FEET", "CAPACITY": 195000, "US_RANK": 35, "CRUDE": 195000, "VACDIST": 50000, "COKING": 0, "THERMALOP": 0, "CATCRACK": 52500, "CATREFORM": 45500, "CATHYDCRCK": 25500, "CATHYDTRT": 130100, "ALKY": 9800, "POLDIM": 0, "AROMATIC": 0, "ISOMER": 6000, "LUBES": 0, "OXYGENATES": 0, "HYDRGN": 30, "COKE": 0, "SULFUR": 75, "ASPHALT": 12000 }, "geometry": { "type": "Point", "coordinates": [ -101.88038, 35.95528 ] } },
{ "type": "Feature", "properties": { "OBJECTID": 17, "REF_ID": "REF480019", "NAME": "PASADENA", "ADDRESS": "111 RED BLUFF ROAD", "CITY": "PASADENA", "STATE": "TX", "ZIP": "77506", "ZIP4": "1530", "TELEPHONE": "(713) 920-4152", "TYPE": "MEDIUM SIZED COMPLEX REFINERY WITH A HIGH GASOLINE YIELD", "STATUS": "IN SERVICE", "POPULATION": 345, "COUNTY": "HARRIS", "COUNTYFIPS": "48201", "COUNTRY": "USA", "LATITUDE": 29.7231, "LONGITUDE": -95.20804, "NAICS_CODE": "324110", "NAICS_DESC": "PETROLEUM REFINERIES", "SOURCE": "EIA-820; EPA TRI", "SOURCEDATE": "2017\/01\/01 00:00:00", "VAL_METHOD": "IMAGERY\/OTHER", "VAL_DATE": "2018\/01\/31 00:00:00", "WEBSITE": "http:\/\/www.petrobras.com", "OWNER": "PETROBRAS AMERICA INC", "OPERNAME": "PASADENA REFINING SYSTEMS INC", "RMP_ID": "55654", "EPA_ID": "100000038274", "POSREL": "WITHIN 166 FEET", "CAPACITY": 112229, "US_RANK": 61, "CRUDE": 112229, "VACDIST": 38000, "COKING": 0, "THERMALOP": 0, "CATCRACK": 50440, "CATREFORM": 21340, "CATHYDCRCK": 0, "CATHYDTRT": 78000, "ALKY": 12500, "POLDIM": 0, "AROMATIC": 0, "ISOMER": 0, "LUBES": 0, "OXYGENATES": 0, "HYDRGN": 0, "COKE": 0, "SULFUR": 28, "ASPHALT": 0 }, "geometry": { "type": "Point", "coordinates": [ -95.20804, 29.7231 ] } },
{ "type": "Feature", "properties": { "OBJECTID": 18, "REF_ID": "REF220020", "NAME": "LAKE CHARLES", "ADDRESS": "1601 HWY 108 E", "CITY": "SULPHUR", "STATE": "LA", "ZIP": "70665", "ZIP4": "NOT AVAILABLE", "TELEPHONE": "(337) 708-8431", "TYPE": "MODERN DEEP-CONVERSION FACILITY", "STATUS": "IN SERVICE", "POPULATION": 1183, "COUNTY": "CALCASIEU", "COUNTYFIPS": "22019", "COUNTRY": "USA", "LATITUDE": 30.178666970000052, "LONGITUDE": -93.330235177999953, "NAICS_CODE": "324110", "NAICS_DESC": "PETROLEUM REFINERIES", "SOURCE": "EIA-820; EPA TRI", "SOURCEDATE": "2017\/01\/01 00:00:00", "VAL_METHOD": "IMAGERY\/OTHER", "VAL_DATE": "2018\/01\/31 00:00:00", "WEBSITE": "http:\/\/citgorefining.com", "OWNER": "PDV AMERICA INC", "OPERNAME": "CITGO PETROLEUM CORP", "RMP_ID": "55717", "EPA_ID": "100000140199", "POSREL": "WITHIN 166 FEET", "CAPACITY": 425000, "US_RANK": 6, "CRUDE": 425000, "VACDIST": 230000, "COKING": 85410, "THERMALOP": 0, "CATCRACK": 143000, "CATREFORM": 103035, "CATHYDCRCK": 46000, "CATHYDTRT": 398200, "ALKY": 26400, "POLDIM": 0, "AROMATIC": 20900, "ISOMER": 28000, "LUBES": 0, "OXYGENATES": 0, "HYDRGN": 0, "COKE": 32820, "SULFUR": 717, "ASPHALT": 0 }, "geometry": { "type": "Point", "coordinates": [ -93.330235177999953, 30.178666970000052 ] } },
{ "type": "Feature", "properties": { "OBJECTID": 19, "REF_ID": "REF060021", "NAME": "RODEO (SAN FRANCISCO)", "ADDRESS": "1380 SAN PABLO AVENUE", "CITY": "RODEO", "STATE": "CA", "ZIP": "94572", "ZIP4": "NOT AVAILABLE", "TELEPHONE": "(510) 245-4400", "TYPE": "MEDIUM COMPLEX REFINERY", "STATUS": "IN SERVICE", "POPULATION": 445, "COUNTY": "CONTRA COSTA", "COUNTYFIPS": "06013", "COUNTRY": "USA", "LATITUDE": 38.04457, "LONGITUDE": -122.25522, "NAICS_CODE": "324110", "NAICS_DESC": "PETROLEUM REFINERIES", "SOURCE": "EIA-820; EPA TRI", "SOURCEDATE": "2017\/01\/01 00:00:00", "VAL_METHOD": "IMAGERY\/OTHER", "VAL_DATE": "2018\/01\/31 00:00:00", "WEBSITE": "http:\/\/www.phillips66.com", "OWNER": "PHILLIPS 66 COMPANY", "OPERNAME": "PHILLIPS 66 COMPANY", "RMP_ID": "55938", "EPA_ID": "100000145238", "POSREL": "WITHIN 166 FEET", "CAPACITY": 120200, "US_RANK": 58, "CRUDE": 120200, "VACDIST": 93200, "COKING": 47000, "THERMALOP": 0, "CATCRACK": 0, "CATREFORM": 31000, "CATHYDCRCK": 59000, "CATHYDTRT": 62500, "ALKY": 0, "POLDIM": 0, "AROMATIC": 0, "ISOMER": 17600, "LUBES": 0, "OXYGENATES": 0, "HYDRGN": 22, "COKE": 14500, "SULFUR": 560, "ASPHALT": 0 }, "geometry": { "type": "Point", "coordinates": [ -122.25522, 38.04457 ] } },
{ "type": "Feature", "properties": { "OBJECTID": 20, "REF_ID": "REF400022", "NAME": "TULSA WEST", "ADDRESS": "1700 S UNION AVE", "CITY": "TULSA", "STATE": "OK", "ZIP": "74107", "ZIP4": "2810", "TELEPHONE": "(918) 594-6284", "TYPE": "MEDIUM SIZED MEDIUM COMPLEXITY REFINERY", "STATUS": "IN SERVICE", "POPULATION": 285, "COUNTY": "TULSA", "COUNTYFIPS": "40143", "COUNTRY": "USA", "LATITUDE": 36.1389, "LONGITUDE": -96.02106, "NAICS_CODE": "324110", "NAICS_DESC": "PETROLEUM REFINERIES", "SOURCE": "EIA-820; EPA TRI", "SOURCEDATE": "2017\/01\/01 00:00:00", "VAL_METHOD": "IMAGERY\/OTHER", "VAL_DATE": "2018\/01\/31 00:00:00", "WEBSITE": "http:\/\/www.hollyfrontier.com", "OWNER": "HOLLYFRONTIER CORP", "OPERNAME": "HOLLYFRONTIER TULSA REFINING LLC", "RMP_ID": "55955", "EPA_ID": "100000146567", "POSREL": "WITHIN 1 MILE", "CAPACITY": 85000, "US_RANK": 75, "CRUDE": 85000, "VACDIST": 32000, "COKING": 8800, "THERMALOP": 0, "CATCRACK": 0, "CATREFORM": 0, "CATHYDCRCK": 0, "CATHYDTRT": 49600, "ALKY": 0, "POLDIM": 0, "AROMATIC": 0, "ISOMER": 1800, "LUBES": 9100, "OXYGENATES": 0, "HYDRGN": 0, "COKE": 2750, "SULFUR": 0, "ASPHALT": 6500 }, "geometry": { "type": "Point", "coordinates": [ -96.02106, 36.1389 ] } },
{ "type": "Feature", "properties": { "OBJECTID": 21, "REF_ID": "REF060023", "NAME": "PARAMOUNT", "ADDRESS": "14700 DOWNEY AVENUE", "CITY": "PARAMOUNT", "STATE": "CA", "ZIP": "90723", "ZIP4": "NOT AVAILABLE", "TELEPHONE": "(562) 531-2060", "TYPE": "SMALL LOW COMPLEXITY REFINERY", "STATUS": "IN SERVICE", "POPULATION": 155, "COUNTY": "LOS ANGELES", "COUNTYFIPS": "06037", "COUNTRY": "USA", "LATITUDE": 33.89872, "LONGITUDE": -118.14659, "NAICS_CODE": "324110", "NAICS_DESC": "PETROLEUM REFINERIES", "SOURCE": "EIA-820; EPA TRI", "SOURCEDATE": "2017\/01\/01 00:00:00", "VAL_METHOD": "IMAGERY\/OTHER", "VAL_DATE": "2018\/01\/31 00:00:00", "WEBSITE": "http:\/\/www.ppcla.com", "OWNER": "ALON ISRAEL OIL COMPANY LTD", "OPERNAME": "PARAMOUNT PETROLEUM CORPORATION", "RMP_ID": "55991", "EPA_ID": "100000080173", "POSREL": "WITHIN 166 FEET", "CAPACITY": 84500, "US_RANK": 77, "CRUDE": 0, "VACDIST": 30000, "COKING": 0, "THERMALOP": 0, "CATCRACK": 0, "CATREFORM": 11500, "CATHYDCRCK": 0, "CATHYDTRT": 36500, "ALKY": 0, "POLDIM": 0, "AROMATIC": 0, "ISOMER": 0, "LUBES": 0, "OXYGENATES": 0, "HYDRGN": 0, "COKE": 0, "SULFUR": 40, "ASPHALT": 16500 }, "geometry": { "type": "Point", "coordinates": [ -118.14659, 33.89872 ] } },
{ "type": "Feature", "properties": { "OBJECTID": 22, "REF_ID": "REF400024", "NAME": "TULSA EAST", "ADDRESS": "902 W 25TH STREET", "CITY": "TULSA", "STATE": "OK", "ZIP": "74107", "ZIP4": "2810", "TELEPHONE": "(918) 594-6284", "TYPE": "LARGE COMPLEX REFINERY", "STATUS": "IN SERVICE", "POPULATION": 409, "COUNTY": "TULSA", "COUNTYFIPS": "40143", "COUNTRY": "USA", "LATITUDE": 36.11992, "LONGITUDE": -96.00072, "NAICS_CODE": "324110", "NAICS_DESC": "PETROLEUM REFINERIES", "SOURCE": "EIA-820; EPA TRI", "SOURCEDATE": "2017\/01\/01 00:00:00", "VAL_METHOD": "IMAGERY\/OTHER", "VAL_DATE": "2018\/01\/31 00:00:00", "WEBSITE": "https:\/\/www.hollyfrontier.com", "OWNER": "HOLLYFRONTIER CORP", "OPERNAME": "HOLLYFRONTIER TULSA REFINING LLC", "RMP_ID": "1000000095", "EPA_ID": "100000033064", "POSREL": "WITHIN 1 MILE", "CAPACITY": 70300, "US_RANK": 87, "CRUDE": 0, "VACDIST": 27000, "COKING": 0, "THERMALOP": 0, "CATCRACK": 23100, "CATREFORM": 21000, "CATHYDCRCK": 0, "CATHYDTRT": 96000, "ALKY": 5500, "POLDIM": 0, "AROMATIC": 0, "ISOMER": 13000, "LUBES": 0, "OXYGENATES": 0, "HYDRGN": 0, "COKE": 0, "SULFUR": 75, "ASPHALT": 15200 }, "geometry": { "type": "Point", "coordinates": [ -96.00072, 36.11992 ] } },
{ "type": "Feature", "properties": { "OBJECTID": 23, "REF_ID": "REF180026", "NAME": "MOUNT VERNON", "ADDRESS": "1200 REFINERY ROAD", "CITY": "MOUNT VERNON", "STATE": "IN", "ZIP": "47620", "ZIP4": "NOT AVAILABLE", "TELEPHONE": "(812) 838-8133", "TYPE": "MEDIUM SIZED COMPLEX REFINERY", "STATUS": "IN SERVICE", "POPULATION": 190, "COUNTY": "POSEY", "COUNTYFIPS": "18129", "COUNTRY": "USA", "LATITUDE": 37.94216, "LONGITUDE": -87.91082, "NAICS_CODE": "324110", "NAICS_DESC": "PETROLEUM REFINERIES", "SOURCE": "EIA-820; EPA TRI", "SOURCEDATE": "2017\/01\/01 00:00:00", "VAL_METHOD": "IMAGERY\/OTHER", "VAL_DATE": "2018\/01\/31 00:00:00", "WEBSITE": "http:\/\/www.countrymark.com", "OWNER": "COUNTRYMARK COOP INC", "OPERNAME": "COUNTRYMARK COOPERATIVE INC", "RMP_ID": "1000000546", "EPA_ID": "100000106501", "POSREL": "WITHIN 166 FEET", "CAPACITY": 28200, "US_RANK": 110, "CRUDE": 28200, "VACDIST": 14000, "COKING": 0, "THERMALOP": 0, "CATCRACK": 8200, "CATREFORM": 5800, "CATHYDCRCK": 0, "CATHYDTRT": 29000, "ALKY": 2200, "POLDIM": 0, "AROMATIC": 0, "ISOMER": 3200, "LUBES": 0, "OXYGENATES": 0, "HYDRGN": 0, "COKE": 0, "SULFUR": 9, "ASPHALT": 3700 }, "geometry": { "type": "Point", "coordinates": [ -87.91082, 37.94216 ] } },
{ "type": "Feature", "properties": { "OBJECTID": 24, "REF_ID": "REF540027", "NAME": "NEWELL", "ADDRESS": "9995 OHIO RIVER BOULEVARD", "CITY": "NEWELL", "STATE": "WV", "ZIP": "26050", "ZIP4": "NOT AVAILABLE", "TELEPHONE": "(304) 387-4343", "TYPE": "SMALL MEDIUM COMPLEXITY REFINERY", "STATUS": "IN SERVICE", "POPULATION": 180, "COUNTY": "HANCOCK", "COUNTYFIPS": "54029", "COUNTRY": "USA", "LATITUDE": 40.61127, "LONGITUDE": -80.62966, "NAICS_CODE": "324110", "NAICS_DESC": "PETROLEUM REFINERIES", "SOURCE": "EIA-820; EPA TRI", "SOURCEDATE": "2017\/01\/01 00:00:00", "VAL_METHOD": "IMAGERY\/OTHER", "VAL_DATE": "2018\/01\/31 00:00:00", "WEBSITE": "http:\/\/www.ergon.com\/", "OWNER": "ERGON INC", "OPERNAME": "ERGON WEST VIRGINIA INC", "RMP_ID": "1000000775", "EPA_ID": "100000165019", "POSREL": "WITHIN 166 FEET", "CAPACITY": 22300, "US_RANK": 116, "CRUDE": 22300, "VACDIST": 8600, "COKING": 0, "THERMALOP": 0, "CATCRACK": 0, "CATREFORM": 4500, "CATHYDCRCK": 0, "CATHYDTRT": 24100, "ALKY": 0, "POLDIM": 0, "AROMATIC": 0, "ISOMER": 0, "LUBES": 5100, "OXYGENATES": 0, "HYDRGN": 3, "COKE": 0, "SULFUR": 1, "ASPHALT": 700 }, "geometry": { "type": "Point", "coordinates": [ -80.62966, 40.61127 ] } },
{ "type": "Feature", "properties": { "OBJECTID": 25, "REF_ID": "REF220028", "NAME": "WESTLAKE", "ADDRESS": "2800 OLD SPANISH TRAIL", "CITY": "WESTLAKE", "STATE": "LA", "ZIP": "70669", "ZIP4": "5124", "TELEPHONE": "(337) 491-4992", "TYPE": "MEDIUM LUBRICANTS REFINERY", "STATUS": "IN SERVICE", "POPULATION": 98, "COUNTY": "CALCASIEU", "COUNTYFIPS": "22019", "COUNTRY": "USA", "LATITUDE": 30.24224, "LONGITUDE": -93.28476, "NAICS_CODE": "324110", "NAICS_DESC": "PETROLEUM REFINERIES", "SOURCE": "EIA-820; EPA ENVIROFACTS", "SOURCEDATE": "2017\/01\/01 00:00:00", "VAL_METHOD": "IMAGERY\/OTHER", "VAL_DATE": "2018\/01\/31 00:00:00", "WEBSITE": "http:\/\/www.fhr.com", "OWNER": "EXCEL PARALUBES", "OPERNAME": "EXCEL PARALUBES", "RMP_ID": "1000001103", "EPA_ID": "100000040387", "POSREL": "WITHIN 166 FEET", "CAPACITY": 0, "US_RANK": 139, "CRUDE": 0, "VACDIST": 0, "COKING": 0, "THERMALOP": 0, "CATCRACK": 0, "CATREFORM": 0, "CATHYDCRCK": 41592, "CATHYDTRT": 0, "ALKY": 0, "POLDIM": 0, "AROMATIC": 0, "ISOMER": 0, "LUBES": 30000, "OXYGENATES": 0, "HYDRGN": 0, "COKE": 0, "SULFUR": 185, "ASPHALT": 0 }, "geometry": { "type": "Point", "coordinates": [ -93.28476, 30.24224 ] } },
{ "type": "Feature", "properties": { "OBJECTID": 26, "REF_ID": "REF220029", "NAME": "WESTLAKE", "ADDRESS": "2200 OLD SPANISH TRAIL", "CITY": "WESTLAKE", "STATE": "LA", "ZIP": "70669", "ZIP4": "NOT AVAILABLE", "TELEPHONE": "(337) 491-4443", "TYPE": "LARGE MEDIUM COMPLEXITY REFINERY", "STATUS": "IN SERVICE", "POPULATION": 705, "COUNTY": "CALCASIEU", "COUNTYFIPS": "22019", "COUNTRY": "USA", "LATITUDE": 30.24116, "LONGITUDE": -93.27022, "NAICS_CODE": "324110", "NAICS_DESC": "PETROLEUM REFINERIES", "SOURCE": "EIA-820; EPA TRI", "SOURCEDATE": "2017\/01\/01 00:00:00", "VAL_METHOD": "IMAGERY\/OTHER", "VAL_DATE": "2018\/01\/31 00:00:00", "WEBSITE": "http:\/\/www.phillips66.com", "OWNER": "PHILLIPS 66 COMPANY", "OPERNAME": "PHILLIPS 66 COMPANY", "RMP_ID": "1000001105", "EPA_ID": "100000039157", "POSREL": "WITHIN 166 FEET", "CAPACITY": 260000, "US_RANK": 21, "CRUDE": 260000, "VACDIST": 132000, "COKING": 52500, "THERMALOP": 0, "CATCRACK": 45200, "CATREFORM": 37900, "CATHYDCRCK": 0, "CATHYDTRT": 229000, "ALKY": 6000, "POLDIM": 0, "AROMATIC": 0, "ISOMER": 0, "LUBES": 0, "OXYGENATES": 0, "HYDRGN": 0, "COKE": 22500, "SULFUR": 440, "ASPHALT": 2500 }, "geometry": { "type": "Point", "coordinates": [ -93.27022, 30.24116 ] } },
{ "type": "Feature", "properties": { "OBJECTID": 27, "REF_ID": "REF270030", "NAME": "SAINT PAUL PARK", "ADDRESS": "301 ST PAUL PARK RD", "CITY": "SAINT PAUL PARK", "STATE": "MN", "ZIP": "55071", "ZIP4": "NOT AVAILABLE", "TELEPHONE": "(651) 458-2694", "TYPE": "MEDIUM REFINERY WITH HIGH COMPLEXITY", "STATUS": "IN SERVICE", "POPULATION": 370, "COUNTY": "WASHINGTON", "COUNTYFIPS": "27163", "COUNTRY": "USA", "LATITUDE": 44.85156, "LONGITUDE": -93.00051, "NAICS_CODE": "324110", "NAICS_DESC": "PETROLEUM REFINERIES", "SOURCE": "EIA-820; EPA TRI", "SOURCEDATE": "2020\/06\/19 00:00:00", "VAL_METHOD": "IMAGERY\/OTHER", "VAL_DATE": "2020\/06\/19 00:00:00", "WEBSITE": "https:\/\/www.marathonpetroleum.com", "OWNER": "MARATHON PETROLEUM CORP", "OPERNAME": "MARATHON PETROLEUM CO LP", "RMP_ID": "1000001449", "EPA_ID": "100000079522", "POSREL": "WITHIN 166 FEET", "CAPACITY": 102000, "US_RANK": 63, "CRUDE": 98515, "VACDIST": 50600, "COKING": 0, "THERMALOP": 0, "CATCRACK": 31475, "CATREFORM": 23655, "CATHYDCRCK": 0, "CATHYDTRT": 112530, "ALKY": 6650, "POLDIM": 0, "AROMATIC": 0, "ISOMER": 11500, "LUBES": 0, "OXYGENATES": 0, "HYDRGN": 10, "COKE": 0, "SULFUR": 122, "ASPHALT": 13400 }, "geometry": { "type": "Point", "coordinates": [ -93.00051, 44.85156 ] } },
{ "type": "Feature", "properties": { "OBJECTID": 28, "REF_ID": "REF420031", "NAME": "BRADFORD", "ADDRESS": "77 N KENDALL AVE", "CITY": "BRADFORD", "STATE": "PA", "ZIP": "16701", "ZIP4": "NOT AVAILABLE", "TELEPHONE": "(814) 368-1283", "TYPE": "VERY SMALL REFINERY", "STATUS": "IN SERVICE", "POPULATION": 250, "COUNTY": "MCKEAN", "COUNTYFIPS": "42083", "COUNTRY": "USA", "LATITUDE": 41.96487, "LONGITUDE": -78.63466, "NAICS_CODE": "324110", "NAICS_DESC": "PETROLEUM REFINERIES", "SOURCE": "EIA-820; EPA TRI", "SOURCEDATE": "2017\/01\/01 00:00:00", "VAL_METHOD": "IMAGERY\/OTHER", "VAL_DATE": "2018\/01\/31 00:00:00", "WEBSITE": "http:\/\/www.amref.com", "OWNER": "AMERICAN REFINING GROUP INC", "OPERNAME": "AMERICAN REFINING GROUP INC", "RMP_ID": "1000002722", "EPA_ID": "100000140563", "POSREL": "WITHIN 166 FEET", "CAPACITY": 11000, "US_RANK": 127, "CRUDE": 11000, "VACDIST": 0, "COKING": 0, "THERMALOP": 0, "CATCRACK": 0, "CATREFORM": 1800, "CATHYDCRCK": 0, "CATHYDTRT": 3600, "ALKY": 0, "POLDIM": 0, "AROMATIC": 0, "ISOMER": 0, "LUBES": 2945, "OXYGENATES": 0, "HYDRGN": 0, "COKE": 0, "SULFUR": 0, "ASPHALT": 65 }, "geometry": { "type": "Point", "coordinates": [ -78.63466, 41.96487 ] } },
{ "type": "Feature", "properties": { "OBJECTID": 29, "REF_ID": "REF560032", "NAME": "EVANSTON", "ADDRESS": "2990 COUNTY ROAD 180", "CITY": "EVANSTON", "STATE": "WY", "ZIP": "82930", "ZIP4": "NOT AVAILABLE", "TELEPHONE": "(801) 298-3211", "TYPE": "VERY SMALL SIMPLE REFINERY", "STATUS": "IN SERVICE", "POPULATION": 26, "COUNTY": "UINTA", "COUNTYFIPS": "56041", "COUNTRY": "USA", "LATITUDE": 41.26035, "LONGITUDE": -110.80691, "NAICS_CODE": "324110", "NAICS_DESC": "PETROLEUM REFINERIES", "SOURCE": "EIA-820; EPA TRI", "SOURCEDATE": "2017\/01\/01 00:00:00", "VAL_METHOD": "IMAGERY\/OTHER", "VAL_DATE": "2018\/01\/31 00:00:00", "WEBSITE": "http:\/\/silvereagleenergy.com", "OWNER": "SILVER EAGLE REFINING INC", "OPERNAME": "SILVER EAGLE REFINING", "RMP_ID": "1000002815", "EPA_ID": "100000065555", "POSREL": "WITHIN 166 FEET", "CAPACITY": 3000, "US_RANK": 136, "CRUDE": 3000, "VACDIST": 0, "COKING": 0, "THERMALOP": 0, "CATCRACK": 0, "CATREFORM": 2650, "CATHYDCRCK": 0, "CATHYDTRT": 3900, "ALKY": 0, "POLDIM": 0, "AROMATIC": 0, "ISOMER": 0, "LUBES": 0, "OXYGENATES": 0, "HYDRGN": 0, "COKE": 0, "SULFUR": 0, "ASPHALT": 0 }, "geometry": { "type": "Point", "coordinates": [ -110.80691, 41.26035 ] } },
{ "type": "Feature", "properties": { "OBJECTID": 30, "REF_ID": "REF150033", "NAME": "EWA BEACH", "ADDRESS": "91-325 KOMOHANA STREET", "CITY": "KAPOLEI", "STATE": "HI", "ZIP": "96707", "ZIP4": "1713", "TELEPHONE": "(808) 265-9690", "TYPE": "MEDIUM COMPLEX REFINERY", "STATUS": "IN SERVICE", "POPULATION": 260, "COUNTY": "HONOLULU", "COUNTYFIPS": "15003", "COUNTRY": "USA", "LATITUDE": 21.30378, "LONGITUDE": -158.09246, "NAICS_CODE": "324110", "NAICS_DESC": "PETROLEUM REFINERIES", "SOURCE": "EIA-820; EPA TRI", "SOURCEDATE": "2017\/01\/01 00:00:00", "VAL_METHOD": "IMAGERY\/OTHER", "VAL_DATE": "2018\/01\/31 00:00:00", "WEBSITE": "http:\/\/www.hawaiiindependentenergy.com", "OWNER": "PAR PETROLEUM INC", "OPERNAME": "HAWAII INDEPENDENT ENERGY LLC", "RMP_ID": "1000003052", "EPA_ID": "100000034107", "POSREL": "WITHIN 166 FEET", "CAPACITY": 93500, "US_RANK": 68, "CRUDE": 93500, "VACDIST": 40000, "COKING": 0, "THERMALOP": 11000, "CATCRACK": 0, "CATREFORM": 13100, "CATHYDCRCK": 19000, "CATHYDTRT": 13000, "ALKY": 0, "POLDIM": 0, "AROMATIC": 0, "ISOMER": 0, "LUBES": 0, "OXYGENATES": 0, "HYDRGN": 18, "COKE": 0, "SULFUR": 38, "ASPHALT": 0 }, "geometry": { "type": "Point", "coordinates": [ -158.09246, 21.30378 ] } },
{ "type": "Feature", "properties": { "OBJECTID": 31, "REF_ID": "REF060034", "NAME": "LOS ANGELES (WILMINGTON PLANT)", "ADDRESS": "2101 E PACIFIC COAST HIGHWAY", "CITY": "WILMINGTON", "STATE": "CA", "ZIP": "90744", "ZIP4": "NOT AVAILABLE", "TELEPHONE": "(310) 522-6148", "TYPE": "MEDIUM SIZED COMPLEX REFINERY", "STATUS": "IN SERVICE", "POPULATION": 520, "COUNTY": "LOS ANGELES", "COUNTYFIPS": "06037", "COUNTRY": "USA", "LATITUDE": 33.79637, "LONGITUDE": -118.23297, "NAICS_CODE": "324110", "NAICS_DESC": "PETROLEUM REFINERIES", "SOURCE": "EIA-820; EPA TRI", "SOURCEDATE": "2020\/06\/18 00:00:00", "VAL_METHOD": "IMAGERY\/OTHER", "VAL_DATE": "2020\/06\/18 00:00:00", "WEBSITE": "https:\/\/www.marathonpetroleum.com", "OWNER": "MARATHON PETROLEUM CORP", "OPERNAME": "MARATHON PETROLEUM CO LP", "RMP_ID": "1000003758", "EPA_ID": "100000098681", "POSREL": "WITHIN 166 FEET", "CAPACITY": 94900, "US_RANK": 67, "CRUDE": 94900, "VACDIST": 65000, "COKING": 27200, "THERMALOP": 0, "CATCRACK": 30700, "CATREFORM": 24800, "CATHYDCRCK": 27500, "CATHYDTRT": 131000, "ALKY": 12500, "POLDIM": 0, "AROMATIC": 0, "ISOMER": 15600, "LUBES": 0, "OXYGENATES": 0, "HYDRGN": 15, "COKE": 12000, "SULFUR": 280, "ASPHALT": 0 }, "geometry": { "type": "Point", "coordinates": [ -118.23297, 33.79637 ] } },
{ "type": "Feature", "properties": { "OBJECTID": 32, "REF_ID": "REF490035", "NAME": "NORTH SALT LAKE", "ADDRESS": "333 W CENTER STREET", "CITY": "NORTH SALT LAKE", "STATE": "UT", "ZIP": "84054", "ZIP4": "2805", "TELEPHONE": "(801) 296-7700", "TYPE": "SMALL BUT MEDIUM COMPLEX REFINERY FOCUSED ON GASOLINE PRODUCTION", "STATUS": "IN SERVICE", "POPULATION": 146, "COUNTY": "DAVIS", "COUNTYFIPS": "49011", "COUNTRY": "USA", "LATITUDE": 40.83864, "LONGITUDE": -111.92062, "NAICS_CODE": "324110", "NAICS_DESC": "PETROLEUM REFINERIES", "SOURCE": "EIA-820; EPA TRI", "SOURCEDATE": "2017\/01\/01 00:00:00", "VAL_METHOD": "IMAGERY\/OTHER", "VAL_DATE": "2018\/01\/31 00:00:00", "WEBSITE": "http:\/\/www.bigwestoil.com", "OWNER": "FJ MANAGEMENT INC", "OPERNAME": "BIG WEST OIL CO", "RMP_ID": "1000003874", "EPA_ID": "100000147922", "POSREL": "WITHIN 166 FEET", "CAPACITY": 30500, "US_RANK": 109, "CRUDE": 30500, "VACDIST": 0, "COKING": 0, "THERMALOP": 0, "CATCRACK": 12100, "CATREFORM": 8200, "CATHYDCRCK": 0, "CATHYDTRT": 22500, "ALKY": 3000, "POLDIM": 0, "AROMATIC": 0, "ISOMER": 6800, "LUBES": 0, "OXYGENATES": 0, "HYDRGN": 0, "COKE": 0, "SULFUR": 4, "ASPHALT": 0 }, "geometry": { "type": "Point", "coordinates": [ -111.92062, 40.83864 ] } },
{ "type": "Feature", "properties": { "OBJECTID": 33, "REF_ID": "REF150036", "NAME": "HONOLULU", "ADDRESS": "91-480 MALAKOLE STREET", "CITY": "KAPOLEI", "STATE": "HI", "ZIP": "96707", "ZIP4": "NOT AVAILABLE", "TELEPHONE": "(808) 682-2313", "TYPE": "MEDIUM SIZED MEDIUM COMPLEXITY REFINERY", "STATUS": "IN SERVICE", "POPULATION": 203, "COUNTY": "HONOLULU", "COUNTYFIPS": "15003", "COUNTRY": "USA", "LATITUDE": 21.30988, "LONGITUDE": -158.1118, "NAICS_CODE": "324110", "NAICS_DESC": "PETROLEUM REFINERIES", "SOURCE": "EIA-820; EPA TRI", "SOURCEDATE": "2017\/01\/01 00:00:00", "VAL_METHOD": "IMAGERY\/OTHER", "VAL_DATE": "2018\/01\/31 00:00:00", "WEBSITE": "https:\/\/www.islandenergyservices.com", "OWNER": "ISLAND ENERGY SERVICES LLC", "OPERNAME": "ISLAND ENERGY SERVICES DOWNSTREAM", "RMP_ID": "1000004005", "EPA_ID": "100000084936", "POSREL": "WITHIN 166 FEET", "CAPACITY": 54000, "US_RANK": 98, "CRUDE": 54000, "VACDIST": 31000, "COKING": 0, "THERMALOP": 0, "CATCRACK": 21000, "CATREFORM": 0, "CATHYDCRCK": 0, "CATHYDTRT": 3500, "ALKY": 5000, "POLDIM": 0, "AROMATIC": 0, "ISOMER": 6400, "LUBES": 0, "OXYGENATES": 0, "HYDRGN": 3, "COKE": 0, "SULFUR": 0, "ASPHALT": 0 }, "geometry": { "type": "Point", "coordinates": [ -158.1118, 21.30988 ] } },
{ "type": "Feature", "properties": { "OBJECTID": 34, "REF_ID": "REF220037", "NAME": "BATON ROUGE", "ADDRESS": "4045 SCENIC HIGHWAY", "CITY": "BATON ROUGE", "STATE": "LA", "ZIP": "70805", "ZIP4": "NOT AVAILABLE", "TELEPHONE": "(225) 977-8393", "TYPE": "VERY LARGE COMPLEX REFINERY", "STATUS": "IN SERVICE", "POPULATION": 1337, "COUNTY": "EAST BATON ROUGE", "COUNTYFIPS": "22033", "COUNTRY": "USA", "LATITUDE": 30.4839, "LONGITUDE": -91.17958, "NAICS_CODE": "324110", "NAICS_DESC": "PETROLEUM REFINERIES", "SOURCE": "EIA-820; EPA TRI", "SOURCEDATE": "2017\/01\/01 00:00:00", "VAL_METHOD": "IMAGERY\/OTHER", "VAL_DATE": "2018\/01\/31 00:00:00", "WEBSITE": "http:\/\/corporate.exxonmobil.com", "OWNER": "EXXON MOBIL CORP", "OPERNAME": "EXXONMOBIL REFINING & SUPPLY CO", "RMP_ID": "1000004754", "EPA_ID": "100000091768", "POSREL": "WITHIN 166 FEET", "CAPACITY": 502500, "US_RANK": 4, "CRUDE": 502500, "VACDIST": 246100, "COKING": 117500, "THERMALOP": 0, "CATCRACK": 232500, "CATREFORM": 73500, "CATHYDCRCK": 25700, "CATHYDTRT": 520500, "ALKY": 41000, "POLDIM": 0, "AROMATIC": 0, "ISOMER": 0, "LUBES": 16500, "OXYGENATES": 0, "HYDRGN": 0, "COKE": 31525, "SULFUR": 800, "ASPHALT": 0 }, "geometry": { "type": "Point", "coordinates": [ -91.17958, 30.4839 ] } },
{ "type": "Feature", "properties": { "OBJECTID": 35, "REF_ID": "REF060038", "NAME": "WILMINGTON", "ADDRESS": "1660 W. ANAHEIM STREET", "CITY": "WILMINGTON", "STATE": "CA", "ZIP": "90744", "ZIP4": "NOT AVAILABLE", "TELEPHONE": "(310) 952-6038", "TYPE": "MEDIUM SIZED COMPLEX REFINERY", "STATUS": "IN SERVICE", "POPULATION": 411, "COUNTY": "LOS ANGELES", "COUNTYFIPS": "06037", "COUNTRY": "USA", "LATITUDE": 33.77309, "LONGITUDE": -118.28705, "NAICS_CODE": "324110", "NAICS_DESC": "PETROLEUM REFINERIES", "SOURCE": "EIA-820; EPA TRI", "SOURCEDATE": "2017\/01\/01 00:00:00", "VAL_METHOD": "IMAGERY\/OTHER", "VAL_DATE": "2018\/01\/31 00:00:00", "WEBSITE": "http:\/\/www.phillips66.com", "OWNER": "PHILLIPS 66 COMPANY", "OPERNAME": "PHILLIPS 66 COMPANY", "RMP_ID": "1000004777", "EPA_ID": "100000146843", "POSREL": "WITHIN 166 FEET", "CAPACITY": 139000, "US_RANK": 54, "CRUDE": 139000, "VACDIST": 82000, "COKING": 48300, "THERMALOP": 0, "CATCRACK": 48700, "CATREFORM": 30800, "CATHYDCRCK": 26240, "CATHYDTRT": 150700, "ALKY": 16000, "POLDIM": 0, "AROMATIC": 0, "ISOMER": 19000, "LUBES": 0, "OXYGENATES": 0, "HYDRGN": 105, "COKE": 16800, "SULFUR": 370, "ASPHALT": 0 }, "geometry": { "type": "Point", "coordinates": [ -118.28705, 33.77309 ] } },
{ "type": "Feature", "properties": { "OBJECTID": 36, "REF_ID": "REF530039", "NAME": "TACOMA", "ADDRESS": "3001 MARSHALL AVENUE", "CITY": "TACOMA", "STATE": "WA", "ZIP": "98421", "ZIP4": "3116", "TELEPHONE": "(253) 383-1651", "TYPE": "SMALL MEDIUM COMPLEXITY REFINERY", "STATUS": "IN SERVICE", "POPULATION": 170, "COUNTY": "PIERCE", "COUNTYFIPS": "53053", "COUNTRY": "USA", "LATITUDE": 47.25709, "LONGITUDE": -122.39626, "NAICS_CODE": "324110", "NAICS_DESC": "PETROLEUM REFINERIES", "SOURCE": "EIA-820; EPA TRI", "SOURCEDATE": "2017\/01\/01 00:00:00", "VAL_METHOD": "IMAGERY\/OTHER", "VAL_DATE": "2018\/01\/31 00:00:00", "WEBSITE": "http:\/\/www.usor.com", "OWNER": "TRAILSTONE LP", "OPERNAME": "US OIL & REFINING CO", "RMP_ID": "1000005234", "EPA_ID": "100000127864", "POSREL": "WITHIN 166 FEET", "CAPACITY": 40700, "US_RANK": 103, "CRUDE": 40700, "VACDIST": 19200, "COKING": 0, "THERMALOP": 0, "CATCRACK": 0, "CATREFORM": 6400, "CATHYDCRCK": 0, "CATHYDTRT": 18600, "ALKY": 0, "POLDIM": 0, "AROMATIC": 0, "ISOMER": 4500, "LUBES": 0, "OXYGENATES": 0, "HYDRGN": 0, "COKE": 0, "SULFUR": 11, "ASPHALT": 8000 }, "geometry": { "type": "Point", "coordinates": [ -122.39626, 47.25709 ] } },
{ "type": "Feature", "properties": { "OBJECTID": 37, "REF_ID": "REF220040", "NAME": "COTTON VALLEY", "ADDRESS": "1756 OLD HWY 7", "CITY": "COTTON VALLEY", "STATE": "LA", "ZIP": "71018", "ZIP4": "NOT AVAILABLE", "TELEPHONE": "(318) 832-4236", "TYPE": "SMALL LUBRICANTS REFINERY", "STATUS": "IN SERVICE", "POPULATION": 42, "COUNTY": "WEBSTER", "COUNTYFIPS": "22119", "COUNTRY": "USA", "LATITUDE": 32.79952, "LONGITUDE": -93.41136, "NAICS_CODE": "324110", "NAICS_DESC": "PETROLEUM REFINERIES", "SOURCE": "EIA-820; EPA TRI", "SOURCEDATE": "2017\/01\/01 00:00:00", "VAL_METHOD": "IMAGERY\/OTHER", "VAL_DATE": "2018\/01\/31 00:00:00", "WEBSITE": "http:\/\/www.calumetspecialty.com", "OWNER": "CALUMET SPECIALTY PRODUCTS PARTNERS, L.P.", "OPERNAME": "CALUMET LUBRICANTS CO LP", "RMP_ID": "1000005936", "EPA_ID": "100000102603", "POSREL": "WITHIN 166 FEET", "CAPACITY": 13020, "US_RANK": 125, "CRUDE": 13020, "VACDIST": 0, "COKING": 0, "THERMALOP": 0, "CATCRACK": 0, "CATREFORM": 0, "CATHYDCRCK": 0, "CATHYDTRT": 6200, "ALKY": 0, "POLDIM": 0, "AROMATIC": 0, "ISOMER": 500, "LUBES": 0, "OXYGENATES": 0, "HYDRGN": 2, "COKE": 0, "SULFUR": 0, "ASPHALT": 0 }, "geometry": { "type": "Point", "coordinates": [ -93.41136, 32.79952 ] } },
{ "type": "Feature", "properties": { "OBJECTID": 38, "REF_ID": "REF300041", "NAME": "GREAT FALLS", "ADDRESS": "1900 10TH STREET NE", "CITY": "GREAT FALLS", "STATE": "MT", "ZIP": "59404", "ZIP4": "NOT AVAILABLE", "TELEPHONE": "(406) 454-9887", "TYPE": "VERY SMALL BUT COMPLEX REFINERY CAPABLE OF PROCESSING THE HEAVIEST CRUDE", "STATUS": "IN SERVICE", "POPULATION": 95, "COUNTY": "CASCADE", "COUNTYFIPS": "30013", "COUNTRY": "USA", "LATITUDE": 47.52363, "LONGITUDE": -111.29321, "NAICS_CODE": "324110", "NAICS_DESC": "PETROLEUM REFINERIES", "SOURCE": "EIA-820; EPA TRI", "SOURCEDATE": "2017\/01\/01 00:00:00", "VAL_METHOD": "IMAGERY\/OTHER", "VAL_DATE": "2018\/01\/31 00:00:00", "WEBSITE": "http:\/\/www.calumetspecialty.com", "OWNER": "CALUMET SPECIALTY PRODUCTS PARTNERS, L.P.", "OPERNAME": "CALUMET MONTANA REFINING LLC", "RMP_ID": "1000006043", "EPA_ID": "100000116581", "POSREL": "WITHIN 166 FEET", "CAPACITY": 33600, "US_RANK": 108, "CRUDE": 24000, "VACDIST": 20000, "COKING": 0, "THERMALOP": 0, "CATCRACK": 2750, "CATREFORM": 900, "CATHYDCRCK": 23200, "CATHYDTRT": 14500, "ALKY": 700, "POLDIM": 0, "AROMATIC": 0, "ISOMER": 1500, "LUBES": 0, "OXYGENATES": 0, "HYDRGN": 20, "COKE": 0, "SULFUR": 0, "ASPHALT": 10000 }, "geometry": { "type": "Point", "coordinates": [ -111.29321, 47.52363 ] } },
{ "type": "Feature", "properties": { "OBJECTID": 39, "REF_ID": "REF480042", "NAME": "HOUSTON", "ADDRESS": "12000 LAWNDALE AVE", "CITY": "HOUSTON", "STATE": "TX", "ZIP": "77017", "ZIP4": "NOT AVAILABLE", "TELEPHONE": "(713) 321-4111", "TYPE": "VERY LARGE COMPLEX REFINERY", "STATUS": "IN SERVICE", "POPULATION": 983, "COUNTY": "HARRIS", "COUNTYFIPS": "48201", "COUNTRY": "USA", "LATITUDE": 29.71373, "LONGITUDE": -95.23472, "NAICS_CODE": "324110", "NAICS_DESC": "PETROLEUM REFINERIES", "SOURCE": "EIA-820; EPA TRI", "SOURCEDATE": "2017\/01\/01 00:00:00", "VAL_METHOD": "IMAGERY\/OTHER", "VAL_DATE": "2018\/01\/31 00:00:00", "WEBSITE": "http:\/\/www.lyondellbasell.com", "OWNER": "ACCESS INDUSTRIES", "OPERNAME": "HOUSTON REFINING LP", "RMP_ID": "1000006277", "EPA_ID": "100000118133", "POSREL": "WITHIN 166 FEET", "CAPACITY": 263776, "US_RANK": 20, "CRUDE": 263776, "VACDIST": 196500, "COKING": 93795, "THERMALOP": 0, "CATCRACK": 84679, "CATREFORM": 0, "CATHYDCRCK": 0, "CATHYDTRT": 393475, "ALKY": 11250, "POLDIM": 0, "AROMATIC": 19500, "ISOMER": 0, "LUBES": 3895, "OXYGENATES": 0, "HYDRGN": 0, "COKE": 29850, "SULFUR": 1123, "ASPHALT": 0 }, "geometry": { "type": "Point", "coordinates": [ -95.23472, 29.71373 ] } },
{ "type": "Feature", "properties": { "OBJECTID": 40, "REF_ID": "REF480043", "NAME": "BEAUMONT", "ADDRESS": "1795 BURT ST", "CITY": "BEAUMONT", "STATE": "TX", "ZIP": "77701", "ZIP4": "NOT AVAILABLE", "TELEPHONE": "(409) 757-6012", "TYPE": "LARGE COMPLEX REFINERY", "STATUS": "IN SERVICE", "POPULATION": 1166, "COUNTY": "JEFFERSON", "COUNTYFIPS": "48245", "COUNTRY": "USA", "LATITUDE": 30.06365, "LONGITUDE": -94.0689, "NAICS_CODE": "324110", "NAICS_DESC": "PETROLEUM REFINERIES", "SOURCE": "EIA-820; EPA TRI", "SOURCEDATE": "2017\/01\/01 00:00:00", "VAL_METHOD": "IMAGERY\/OTHER", "VAL_DATE": "2018\/01\/31 00:00:00", "WEBSITE": "http:\/\/cdn.exxonmobil.com", "OWNER": "EXXON MOBIL CORP", "OPERNAME": "EXXONMOBIL REFINING & SUPPLY CO", "RMP_ID": "1000006523", "EPA_ID": "100000152256", "POSREL": "WITHIN 166 FEET", "CAPACITY": 362300, "US_RANK": 8, "CRUDE": 362300, "VACDIST": 148800, "COKING": 45500, "THERMALOP": 0, "CATCRACK": 113000, "CATREFORM": 142000, "CATHYDCRCK": 61600, "CATHYDTRT": 297300, "ALKY": 14900, "POLDIM": 0, "AROMATIC": 0, "ISOMER": 48200, "LUBES": 0, "OXYGENATES": 0, "HYDRGN": 0, "COKE": 15039, "SULFUR": 661, "ASPHALT": 0 }, "geometry": { "type": "Point", "coordinates": [ -94.0689, 30.06365 ] } },
{ "type": "Feature", "properties": { "OBJECTID": 41, "REF_ID": "REF060044", "NAME": "BENICIA", "ADDRESS": "3400 E SECOND ST", "CITY": "BENICIA", "STATE": "CA", "ZIP": "94510", "ZIP4": "1005", "TELEPHONE": "(707) 745-7534", "TYPE": "LARGE FUELS REFINERY", "STATUS": "IN SERVICE", "POPULATION": 549, "COUNTY": "SOLANO", "COUNTYFIPS": "06095", "COUNTRY": "USA", "LATITUDE": 38.07159, "LONGITUDE": -122.13795, "NAICS_CODE": "324110", "NAICS_DESC": "PETROLEUM REFINERIES", "SOURCE": "EIA-820; EPA TRI", "SOURCEDATE": "2017\/01\/01 00:00:00", "VAL_METHOD": "IMAGERY\/OTHER", "VAL_DATE": "2018\/01\/31 00:00:00", "WEBSITE": "http:\/\/www.valero.com", "OWNER": "VALERO ENERGY CORP", "OPERNAME": "VALERO REFINING CO CALIFORNIA", "RMP_ID": "1000007375", "EPA_ID": "100000087871", "POSREL": "WITHIN 166 FEET", "CAPACITY": 145000, "US_RANK": 52, "CRUDE": 145000, "VACDIST": 85500, "COKING": 27500, "THERMALOP": 0, "CATCRACK": 72000, "CATREFORM": 35340, "CATHYDCRCK": 32400, "CATHYDTRT": 169300, "ALKY": 17100, "POLDIM": 0, "AROMATIC": 0, "ISOMER": 8400, "LUBES": 0, "OXYGENATES": 0, "HYDRGN": 135, "COKE": 6800, "SULFUR": 303, "ASPHALT": 9000 }, "geometry": { "type": "Point", "coordinates": [ -122.13795, 38.07159 ] } },
{ "type": "Feature", "properties": { "OBJECTID": 42, "REF_ID": "REF220045", "NAME": "PORT ALLEN", "ADDRESS": "1940 LOUISIANA HWY 1 NORTH", "CITY": "PORT ALLEN", "STATE": "LA", "ZIP": "70767", "ZIP4": "NOT AVAILABLE", "TELEPHONE": "(225) 346-7492", "TYPE": "SMALL MEDIUM COMPLEXITY REFINERY", "STATUS": "IN SERVICE", "POPULATION": 285, "COUNTY": "WEST BATON ROUGE", "COUNTYFIPS": "22121", "COUNTRY": "USA", "LATITUDE": 30.47564, "LONGITUDE": -91.20631, "NAICS_CODE": "324110", "NAICS_DESC": "PETROLEUM REFINERIES", "SOURCE": "EIA-820; EPA TRI", "SOURCEDATE": "2017\/01\/01 00:00:00", "VAL_METHOD": "IMAGERY\/OTHER", "VAL_DATE": "2018\/01\/31 00:00:00", "WEBSITE": "http:\/\/www.placidrefining.com", "OWNER": "PLACID OIL CO", "OPERNAME": "PLACID REFINING CO", "RMP_ID": "1000007629", "EPA_ID": "100000117759", "POSREL": "WITHIN 166 FEET", "CAPACITY": 75000, "US_RANK": 81, "CRUDE": 75000, "VACDIST": 27000, "COKING": 0, "THERMALOP": 0, "CATCRACK": 25000, "CATREFORM": 10500, "CATHYDCRCK": 0, "CATHYDTRT": 56000, "ALKY": 7500, "POLDIM": 0, "AROMATIC": 0, "ISOMER": 0, "LUBES": 0, "OXYGENATES": 0, "HYDRGN": 0, "COKE": 0, "SULFUR": 55, "ASPHALT": 0 }, "geometry": { "type": "Point", "coordinates": [ -91.20631, 30.47564 ] } },
{ "type": "Feature", "properties": { "OBJECTID": 43, "REF_ID": "REF060046", "NAME": "TORRANCE", "ADDRESS": "3700 W 190TH STREET", "CITY": "TORRANCE", "STATE": "CA", "ZIP": "90503", "ZIP4": "2929", "TELEPHONE": "(310) 212-4618", "TYPE": "HIGHLY COMPLEX REFINERY", "STATUS": "IN SERVICE", "POPULATION": 800, "COUNTY": "LOS ANGELES", "COUNTYFIPS": "06037", "COUNTRY": "USA", "LATITUDE": 33.85271, "LONGITUDE": -118.33026, "NAICS_CODE": "324110", "NAICS_DESC": "PETROLEUM REFINERIES", "SOURCE": "EIA-820; EPA TRI", "SOURCEDATE": "2017\/01\/01 00:00:00", "VAL_METHOD": "IMAGERY\/OTHER", "VAL_DATE": "2018\/01\/31 00:00:00", "WEBSITE": "http:\/\/corporate.exxonmobil.com", "OWNER": "PBF ENERGY CO LLC", "OPERNAME": "TORRANCE REFINING CO LLC", "RMP_ID": "1000008282", "EPA_ID": "100000152504", "POSREL": "WITHIN 166 FEET", "CAPACITY": 150900, "US_RANK": 49, "CRUDE": 150900, "VACDIST": 102300, "COKING": 50800, "THERMALOP": 0, "CATCRACK": 98400, "CATREFORM": 17000, "CATHYDCRCK": 19200, "CATHYDTRT": 150200, "ALKY": 27200, "POLDIM": 0, "AROMATIC": 0, "ISOMER": 0, "LUBES": 0, "OXYGENATES": 0, "HYDRGN": 146, "COKE": 16700, "SULFUR": 400, "ASPHALT": 0 }, "geometry": { "type": "Point", "coordinates": [ -118.33026, 33.85271 ] } },
{ "type": "Feature", "properties": { "OBJECTID": 44, "REF_ID": "REF060047", "NAME": "BAKERSFIELD", "ADDRESS": "7724 E PANAMA LN", "CITY": "BAKERSFIELD", "STATE": "CA", "ZIP": "93307", "ZIP4": "9210", "TELEPHONE": "(661) 845-0761", "TYPE": "SMALL REFINERY", "STATUS": "IN SERVICE", "POPULATION": 110, "COUNTY": "KERN", "COUNTYFIPS": "06029", "COUNTRY": "USA", "LATITUDE": 35.29459, "LONGITUDE": -118.91804, "NAICS_CODE": "324110", "NAICS_DESC": "PETROLEUM REFINERIES", "SOURCE": "EIA-820; EPA TRI", "SOURCEDATE": "2017\/01\/01 00:00:00", "VAL_METHOD": "IMAGERY\/OTHER", "VAL_DATE": "2018\/01\/31 00:00:00", "WEBSITE": "http:\/\/www.kernoil.com", "OWNER": "KERN OIL & REFINING CO", "OPERNAME": "KERN OIL & REFINING CO", "RMP_ID": "1000008602", "EPA_ID": "100000150347", "POSREL": "WITHIN 166 FEET", "CAPACITY": 26000, "US_RANK": 112, "CRUDE": 26000, "VACDIST": -999, "COKING": 0, "THERMALOP": 0, "CATCRACK": 0, "CATREFORM": 5690, "CATHYDCRCK": 0, "CATHYDTRT": 14000, "ALKY": 0, "POLDIM": 0, "AROMATIC": 0, "ISOMER": 0, "LUBES": 0, "OXYGENATES": 0, "HYDRGN": 0, "COKE": 0, "SULFUR": 11, "ASPHALT": 0 }, "geometry": { "type": "Point", "coordinates": [ -118.91804, 35.29459 ] } },
{ "type": "Feature", "properties": { "OBJECTID": 45, "REF_ID": "REF340048", "NAME": "LINDEN", "ADDRESS": "1400 PARK AVE SOUTH", "CITY": "LINDEN", "STATE": "NJ", "ZIP": "07036", "ZIP4": "NOT AVAILABLE", "TELEPHONE": "(908) 523-6041", "TYPE": "LARGE COMPLEX REFINERY COLOCATED WITH PETROCHEMICALS", "STATUS": "IN SERVICE", "POPULATION": 830, "COUNTY": "UNION", "COUNTYFIPS": "34039", "COUNTRY": "USA", "LATITUDE": 40.6324, "LONGITUDE": -74.22303, "NAICS_CODE": "324110", "NAICS_DESC": "PETROLEUM REFINERIES", "SOURCE": "EIA-820; EPA TRI", "SOURCEDATE": "2017\/01\/01 00:00:00", "VAL_METHOD": "IMAGERY\/OTHER", "VAL_DATE": "2018\/01\/31 00:00:00", "WEBSITE": "http:\/\/www.phillips66.com", "OWNER": "PHILLIPS 66 COMPANY", "OPERNAME": "PHILLIPS 66 COMPANY", "RMP_ID": "1000008641", "EPA_ID": "100000157064", "POSREL": "WITHIN 166 FEET", "CAPACITY": 241000, "US_RANK": 25, "CRUDE": 241000, "VACDIST": 75000, "COKING": 0, "THERMALOP": 0, "CATCRACK": 125900, "CATREFORM": 23800, "CATHYDCRCK": 0, "CATHYDTRT": 191000, "ALKY": 18800, "POLDIM": 0, "AROMATIC": 0, "ISOMER": 8000, "LUBES": 0, "OXYGENATES": 0, "HYDRGN": 22, "COKE": 0, "SULFUR": 0, "ASPHALT": 0 }, "geometry": { "type": "Point", "coordinates": [ -74.22303, 40.6324 ] } },
{ "type": "Feature", "properties": { "OBJECTID": 46, "REF_ID": "REF480049", "NAME": "SWEENY", "ADDRESS": "SOUTHWEST OF THE INTERSECTION OF FM 524 AND HWY 35", "CITY": "OLD OCEAN", "STATE": "TX", "ZIP": "77480", "ZIP4": "NOT AVAILABLE", "TELEPHONE": "(979) 491-2707", "TYPE": "LARGE COMPLEX REFINERY", "STATUS": "IN SERVICE", "POPULATION": 923, "COUNTY": "BRAZORIA", "COUNTYFIPS": "48039", "COUNTRY": "USA", "LATITUDE": 29.07292, "LONGITUDE": -95.74694, "NAICS_CODE": "324110", "NAICS_DESC": "PETROLEUM REFINERIES", "SOURCE": "EIA-820; EPA ENVIROFACTS", "SOURCEDATE": "2017\/01\/01 00:00:00", "VAL_METHOD": "IMAGERY\/OTHER", "VAL_DATE": "2018\/01\/31 00:00:00", "WEBSITE": "http:\/\/www.phillips66.com", "OWNER": "PHILLIPS 66 COMPANY", "OPERNAME": "PHILLIPS 66 COMPANY", "RMP_ID": "1000008730", "EPA_ID": "100000088914", "POSREL": "WITHIN 166 FEET", "CAPACITY": 247000, "US_RANK": 23, "CRUDE": 247000, "VACDIST": 132100, "COKING": 70900, "THERMALOP": 0, "CATCRACK": 109000, "CATREFORM": 33780, "CATHYDCRCK": 0, "CATHYDTRT": 366700, "ALKY": 21700, "POLDIM": 0, "AROMATIC": 11600, "ISOMER": 10100, "LUBES": 0, "OXYGENATES": 0, "HYDRGN": 0, "COKE": 22800, "SULFUR": 915, "ASPHALT": 0 }, "geometry": { "type": "Point", "coordinates": [ -95.74694, 29.07292 ] } },
{ "type": "Feature", "properties": { "OBJECTID": 47, "REF_ID": "REF280050", "NAME": "SANDERSVILLE", "ADDRESS": "177 HANEY RD HWY 11 N (2 MI N OF SANDERSVILLE)", "CITY": "HEIDELBERG", "STATE": "MS", "ZIP": "39439", "ZIP4": "NOT AVAILABLE", "TELEPHONE": "(205) 391-3503", "TYPE": "SMALL ASPHALT REFINERY", "STATUS": "IN SERVICE", "POPULATION": 40, "COUNTY": "JONES", "COUNTYFIPS": "28067", "COUNTRY": "USA", "LATITUDE": 31.81706, "LONGITUDE": -89.00875, "NAICS_CODE": "324110", "NAICS_DESC": "PETROLEUM REFINERIES", "SOURCE": "EIA-820; EPA TRI", "SOURCEDATE": "2017\/01\/01 00:00:00", "VAL_METHOD": "IMAGERY\/OTHER", "VAL_DATE": "2018\/01\/31 00:00:00", "WEBSITE": "http:\/\/www.huntrefining.com", "OWNER": "HUNT CONSLD INC", "OPERNAME": "HUNT SOUTHLAND REFINING CO", "RMP_ID": "1000008734", "EPA_ID": "100000141349", "POSREL": "WITHIN 166 FEET", "CAPACITY": 11000, "US_RANK": 126, "CRUDE": 11000, "VACDIST": 6875, "COKING": 0, "THERMALOP": 0, "CATCRACK": 0, "CATREFORM": 0, "CATHYDCRCK": 0, "CATHYDTRT": 0, "ALKY": 0, "POLDIM": 0, "AROMATIC": 0, "ISOMER": 0, "LUBES": 0, "OXYGENATES": 0, "HYDRGN": 0, "COKE": 0, "SULFUR": 0, "ASPHALT": 6125 }, "geometry": { "type": "Point", "coordinates": [ -89.00875, 31.81706 ] } },
{ "type": "Feature", "properties": { "OBJECTID": 48, "REF_ID": "REF350051", "NAME": "NAVAJO", "ADDRESS": "501 E MAIN ST", "CITY": "ARTESIA", "STATE": "NM", "ZIP": "88210", "ZIP4": "NOT AVAILABLE", "TELEPHONE": "(575) 746-5487", "TYPE": "MEDIUM SIZED HIGHLY COMPLEX REFINERY", "STATUS": "IN SERVICE", "POPULATION": 330, "COUNTY": "EDDY", "COUNTYFIPS": "35015", "COUNTRY": "USA", "LATITUDE": 32.84693, "LONGITUDE": -104.39327, "NAICS_CODE": "324110", "NAICS_DESC": "PETROLEUM REFINERIES", "SOURCE": "EIA-820; EPA TRI", "SOURCEDATE": "2017\/01\/01 00:00:00", "VAL_METHOD": "IMAGERY\/OTHER", "VAL_DATE": "2018\/01\/31 00:00:00", "WEBSITE": "http:\/\/www.hollyfrontier.com", "OWNER": "HOLLYFRONTIER CORP", "OPERNAME": "HOLLYFRONTIER NAVAJO REFINING LLC", "RMP_ID": "1000008913", "EPA_ID": "100000151426", "POSREL": "WITHIN 166 FEET", "CAPACITY": 98000, "US_RANK": 65, "CRUDE": 98000, "VACDIST": 29600, "COKING": 0, "THERMALOP": 0, "CATCRACK": 26000, "CATREFORM": 21000, "CATHYDCRCK": 16800, "CATHYDTRT": 106000, "ALKY": 9100, "POLDIM": 0, "AROMATIC": 0, "ISOMER": 0, "LUBES": 0, "OXYGENATES": 0, "HYDRGN": 38, "COKE": 0, "SULFUR": 200, "ASPHALT": 7000 }, "geometry": { "type": "Point", "coordinates": [ -104.39327, 32.84693 ] } },
{ "type": "Feature", "properties": { "OBJECTID": 49, "REF_ID": "REF010052", "NAME": "SARALAND", "ADDRESS": "400 INDUSTRIAL PARKWAY EXTENSION EAST", "CITY": "SARALAND", "STATE": "AL", "ZIP": "36571", "ZIP4": "NOT AVAILABLE", "TELEPHONE": "(251) 675-7040", "TYPE": "SMALL \/ MEDIUM SIZED SIMPLE REFINERY", "STATUS": "IN SERVICE", "POPULATION": 165, "COUNTY": "MOBILE", "COUNTYFIPS": "01097", "COUNTRY": "USA", "LATITUDE": 30.78914, "LONGITUDE": -88.05573, "NAICS_CODE": "324110", "NAICS_DESC": "PETROLEUM REFINERIES", "SOURCE": "EIA-820; EPA TRI", "SOURCEDATE": "2017\/01\/01 00:00:00", "VAL_METHOD": "IMAGERY\/OTHER", "VAL_DATE": "2018\/01\/31 00:00:00", "WEBSITE": "http:\/\/www.shell.com", "OWNER": "ROYAL DUTCH\/SHELL GROUP", "OPERNAME": "SHELL CHEMICAL LP", "RMP_ID": "1000008921", "EPA_ID": "100000149127", "POSREL": "WITHIN 166 FEET", "CAPACITY": 91575, "US_RANK": 70, "CRUDE": 91575, "VACDIST": 29000, "COKING": 0, "THERMALOP": 0, "CATCRACK": 0, "CATREFORM": 21000, "CATHYDCRCK": 0, "CATHYDTRT": 73000, "ALKY": 0, "POLDIM": 0, "AROMATIC": 0, "ISOMER": 2300, "LUBES": 0, "OXYGENATES": 0, "HYDRGN": 0, "COKE": 0, "SULFUR": 33, "ASPHALT": 0 }, "geometry": { "type": "Point", "coordinates": [ -88.05573, 30.78914 ] } },
{ "type": "Feature", "properties": { "OBJECTID": 50, "REF_ID": "REF490053", "NAME": "SALT LAKE CITY", "ADDRESS": "2351 NORTH 1100 WEST", "CITY": "SALT LAKE CITY", "STATE": "UT", "ZIP": "84054", "ZIP4": "NOT AVAILABLE", "TELEPHONE": "(801) 539-7337", "TYPE": "SMALL COMPLEX REFINERY", "STATUS": "IN SERVICE", "POPULATION": 301, "COUNTY": "SALT LAKE", "COUNTYFIPS": "49011", "COUNTRY": "USA", "LATITUDE": 40.8259, "LONGITUDE": -111.92327, "NAICS_CODE": "324110", "NAICS_DESC": "PETROLEUM REFINERIES", "SOURCE": "EIA-820; EPA TRI", "SOURCEDATE": "2017\/01\/01 00:00:00", "VAL_METHOD": "IMAGERY\/OTHER", "VAL_DATE": "2018\/01\/31 00:00:00", "WEBSITE": "https:\/\/www.chevron.com\/", "OWNER": "CHEVRON CORP", "OPERNAME": "CHEVRON USA INC", "RMP_ID": "1000009121", "EPA_ID": "100000110079", "POSREL": "WITHIN 166 FEET", "CAPACITY": 54500, "US_RANK": 97, "CRUDE": 54500, "VACDIST": 27500, "COKING": 9600, "THERMALOP": 0, "CATCRACK": 15035, "CATREFORM": 8160, "CATHYDCRCK": 0, "CATHYDTRT": 47000, "ALKY": 5600, "POLDIM": 0, "AROMATIC": 0, "ISOMER": 2600, "LUBES": 0, "OXYGENATES": 0, "HYDRGN": 0, "COKE": 2500, "SULFUR": 63, "ASPHALT": 0 }, "geometry": { "type": "Point", "coordinates": [ -111.92327, 40.8259 ] } },
{ "type": "Feature", "properties": { "OBJECTID": 51, "REF_ID": "REF530054", "NAME": "FERNDALE", "ADDRESS": "3901 UNICK ROAD", "CITY": "FERNDALE", "STATE": "WA", "ZIP": "98248", "ZIP4": "NOT AVAILABLE", "TELEPHONE": "(360) 384-8550", "TYPE": "MEDIUM SIZED MEDIUM COMPLEXITY REFINERY", "STATUS": "IN SERVICE", "POPULATION": 406, "COUNTY": "WHATCOM", "COUNTYFIPS": "53073", "COUNTRY": "USA", "LATITUDE": 48.82973, "LONGITUDE": -122.69437, "NAICS_CODE": "324110", "NAICS_DESC": "PETROLEUM REFINERIES", "SOURCE": "EIA-820; EPA TRI", "SOURCEDATE": "2017\/01\/01 00:00:00", "VAL_METHOD": "IMAGERY\/OTHER", "VAL_DATE": "2018\/01\/31 00:00:00", "WEBSITE": "http:\/\/www.phillips66.com", "OWNER": "PHILLIPS 66 COMPANY", "OPERNAME": "PHILLIPS 66 COMPANY", "RMP_ID": "1000009285", "EPA_ID": "100000129924", "POSREL": "WITHIN 166 FEET", "CAPACITY": 101000, "US_RANK": 64, "CRUDE": 101000, "VACDIST": 50700, "COKING": 0, "THERMALOP": 0, "CATCRACK": 34700, "CATREFORM": 16600, "CATHYDCRCK": 0, "CATHYDTRT": 73400, "ALKY": 10200, "POLDIM": 0, "AROMATIC": 0, "ISOMER": 5400, "LUBES": 0, "OXYGENATES": 0, "HYDRGN": 0, "COKE": 0, "SULFUR": 123, "ASPHALT": 0 }, "geometry": { "type": "Point", "coordinates": [ -122.69437, 48.82973 ] } },
{ "type": "Feature", "properties": { "OBJECTID": 52, "REF_ID": "REF560055", "NAME": "CHEYENNE", "ADDRESS": "2700 EAST 5TH STREET", "CITY": "CHEYENNE", "STATE": "WY", "ZIP": "82007", "ZIP4": "NOT AVAILABLE", "TELEPHONE": "(307) 634-3551", "TYPE": "SMALL COMPLEX REFINERY", "STATUS": "IN SERVICE", "POPULATION": 300, "COUNTY": "LARAMIE", "COUNTYFIPS": "56021", "COUNTRY": "USA", "LATITUDE": 41.12768, "LONGITUDE": -104.78969, "NAICS_CODE": "324110", "NAICS_DESC": "PETROLEUM REFINERIES", "SOURCE": "EIA-820; EPA TRI", "SOURCEDATE": "2017\/01\/01 00:00:00", "VAL_METHOD": "IMAGERY\/OTHER", "VAL_DATE": "2018\/01\/31 00:00:00", "WEBSITE": "http:\/\/www.hollyfrontier.com", "OWNER": "HOLLYFRONTIER CORP", "OPERNAME": "HOLLYFRONTIER CHEYENNE REFINING LLC", "RMP_ID": "1000009303", "EPA_ID": "100000129808", "POSREL": "WITHIN 166 FEET", "CAPACITY": 47000, "US_RANK": 99, "CRUDE": 47000, "VACDIST": 28000, "COKING": 13200, "THERMALOP": 0, "CATCRACK": 12000, "CATREFORM": 8900, "CATHYDCRCK": 0, "CATHYDTRT": 38000, "ALKY": 4200, "POLDIM": 0, "AROMATIC": 0, "ISOMER": 0, "LUBES": 0, "OXYGENATES": 0, "HYDRGN": 10, "COKE": 4700, "SULFUR": 116, "ASPHALT": 16000 }, "geometry": { "type": "Point", "coordinates": [ -104.78969, 41.12768 ] } },
{ "type": "Feature", "properties": { "OBJECTID": 53, "REF_ID": "REF050056", "NAME": "EL DORADO", "ADDRESS": "1000 MCHENRY ST", "CITY": "EL DORADO", "STATE": "AR", "ZIP": "71730", "ZIP4": "NOT AVAILABLE", "TELEPHONE": "(870) 864-1289", "TYPE": "SMALL REFINERY", "STATUS": "IN SERVICE", "POPULATION": 327, "COUNTY": "UNION", "COUNTYFIPS": "05139", "COUNTRY": "USA", "LATITUDE": 33.19927, "LONGITUDE": -92.67513, "NAICS_CODE": "324110", "NAICS_DESC": "PETROLEUM REFINERIES", "SOURCE": "EIA-820; EPA TRI", "SOURCEDATE": "2017\/01\/01 00:00:00", "VAL_METHOD": "IMAGERY\/OTHER", "VAL_DATE": "2018\/01\/31 00:00:00", "WEBSITE": "http:\/\/www.lionoil.com", "OWNER": "DELEK GROUP LTD", "OPERNAME": "LION OIL CO", "RMP_ID": "1000009465", "EPA_ID": "100000134204", "POSREL": "WITHIN 166 FEET", "CAPACITY": 83000, "US_RANK": 79, "CRUDE": 83000, "VACDIST": 45000, "COKING": 0, "THERMALOP": 0, "CATCRACK": 20500, "CATREFORM": 14800, "CATHYDCRCK": 0, "CATHYDTRT": 92750, "ALKY": 5000, "POLDIM": 0, "AROMATIC": 0, "ISOMER": 7500, "LUBES": 0, "OXYGENATES": 0, "HYDRGN": 10, "COKE": 0, "SULFUR": 157, "ASPHALT": 20500 }, "geometry": { "type": "Point", "coordinates": [ -92.67513, 33.19927 ] } },
{ "type": "Feature", "properties": { "OBJECTID": 54, "REF_ID": "REF280057", "NAME": "VICKSBURG", "ADDRESS": "2611 HAINING ROAD", "CITY": "VICKSBURG", "STATE": "MS", "ZIP": "39183", "ZIP4": "NOT AVAILABLE", "TELEPHONE": "(601) 630-8374", "TYPE": "SMALL SCALE SPECIALIST NAPHTHENIC PROCESS OIL PRODUCER", "STATUS": "IN SERVICE", "POPULATION": 180, "COUNTY": "WARREN", "COUNTYFIPS": "28149", "COUNTRY": "USA", "LATITUDE": 32.38658, "LONGITUDE": -90.90825, "NAICS_CODE": "324110", "NAICS_DESC": "PETROLEUM REFINERIES", "SOURCE": "EIA-820; EPA TRI", "SOURCEDATE": "2017\/01\/01 00:00:00", "VAL_METHOD": "IMAGERY\/OTHER", "VAL_DATE": "2018\/01\/31 00:00:00", "WEBSITE": "http:\/\/ergon.com", "OWNER": "ERGON INC", "OPERNAME": "ERGON REFINING INC", "RMP_ID": "1000009573", "EPA_ID": "100000208544", "POSREL": "WITHIN 166 FEET", "CAPACITY": 26500, "US_RANK": 111, "CRUDE": 26500, "VACDIST": 18000, "COKING": 0, "THERMALOP": 0, "CATCRACK": 0, "CATREFORM": 0, "CATHYDCRCK": 0, "CATHYDTRT": 23000, "ALKY": 0, "POLDIM": 0, "AROMATIC": 0, "ISOMER": 0, "LUBES": 23000, "OXYGENATES": 0, "HYDRGN": 13, "COKE": 0, "SULFUR": 0, "ASPHALT": 10000 }, "geometry": { "type": "Point", "coordinates": [ -90.90825, 32.38658 ] } },
{ "type": "Feature", "properties": { "OBJECTID": 55, "REF_ID": "REF480058", "NAME": "SILSBEE", "ADDRESS": "7752 WEST FM 418", "CITY": "SILSBEE", "STATE": "TX", "ZIP": "77656", "ZIP4": "NOT AVAILABLE", "TELEPHONE": "(409) 385-8312", "TYPE": "SMALL AROMATICS PRODUCER", "STATUS": "IN SERVICE", "POPULATION": 125, "COUNTY": "HARDIN", "COUNTYFIPS": "48199", "COUNTRY": "USA", "LATITUDE": 30.39826, "LONGITUDE": -94.22855, "NAICS_CODE": "324110", "NAICS_DESC": "PETROLEUM REFINERIES", "SOURCE": "EIA-820; EPA ENVIROFACTS", "SOURCEDATE": "2017\/01\/01 00:00:00", "VAL_METHOD": "IMAGERY\/OTHER", "VAL_DATE": "2018\/01\/31 00:00:00", "WEBSITE": "http:\/\/www.southhamptonr.com", "OWNER": "TEXAS OIL & CHEMICAL CO", "OPERNAME": "SOUTH HAMPTON RESOURCES INC", "RMP_ID": "1000009843", "EPA_ID": "100000116812", "POSREL": "WITHIN 166 FEET", "CAPACITY": 0, "US_RANK": 140, "CRUDE": 0, "VACDIST": 0, "COKING": 0, "THERMALOP": 0, "CATCRACK": 0, "CATREFORM": 1520, "CATHYDCRCK": 0, "CATHYDTRT": 15000, "ALKY": 0, "POLDIM": 0, "AROMATIC": 1064, "ISOMER": 4400, "LUBES": 0, "OXYGENATES": 0, "HYDRGN": 0, "COKE": 0, "SULFUR": 0, "ASPHALT": 0 }, "geometry": { "type": "Point", "coordinates": [ -94.22855, 30.39826 ] } },
{ "type": "Feature", "properties": { "OBJECTID": 56, "REF_ID": "REF170059", "NAME": "LEMONT", "ADDRESS": "135TH STREET AND NEW AVE", "CITY": "LEMONT", "STATE": "IL", "ZIP": "60439", "ZIP4": "3659", "TELEPHONE": "(630) 257-4085", "TYPE": "LARGE COMPLEX REFINERY", "STATUS": "IN SERVICE", "POPULATION": 513, "COUNTY": "WILL", "COUNTYFIPS": "17197", "COUNTRY": "USA", "LATITUDE": 41.65374, "LONGITUDE": -88.04839, "NAICS_CODE": "324110", "NAICS_DESC": "PETROLEUM REFINERIES", "SOURCE": "EIA-820; EPA TRI", "SOURCEDATE": "2017\/01\/01 00:00:00", "VAL_METHOD": "IMAGERY\/OTHER", "VAL_DATE": "2018\/01\/31 00:00:00", "WEBSITE": "http:\/\/www.citgo.com", "OWNER": "PDV AMERICA INC", "OPERNAME": "PDV MIDWEST REFINING LLC", "RMP_ID": "1000011048", "EPA_ID": "100000144587", "POSREL": "WITHIN 166 FEET", "CAPACITY": 175940, "US_RANK": 42, "CRUDE": 175940, "VACDIST": 77200, "COKING": 36630, "THERMALOP": 0, "CATCRACK": 62550, "CATREFORM": 31410, "CATHYDCRCK": 0, "CATHYDTRT": 226100, "ALKY": 21500, "POLDIM": 0, "AROMATIC": 9400, "ISOMER": 0, "LUBES": 0, "OXYGENATES": 0, "HYDRGN": 12, "COKE": 12700, "SULFUR": 487, "ASPHALT": 0 }, "geometry": { "type": "Point", "coordinates": [ -88.04839, 41.65374 ] } },
{ "type": "Feature", "properties": { "OBJECTID": 57, "REF_ID": "REF300060", "NAME": "BILLINGS", "ADDRESS": "401 S 23RD STREET", "CITY": "BILLINGS", "STATE": "MT", "ZIP": "59101", "ZIP4": "NOT AVAILABLE", "TELEPHONE": "(406) 255-2632", "TYPE": "SMALL BUT COMPLEX REFINERY WITH A HIGH CLEAN PRODUCT YIELD", "STATUS": "IN SERVICE", "POPULATION": 296, "COUNTY": "YELLOWSTONE", "COUNTYFIPS": "30111", "COUNTRY": "USA", "LATITUDE": 45.78061, "LONGITUDE": -108.48972, "NAICS_CODE": "324110", "NAICS_DESC": "PETROLEUM REFINERIES", "SOURCE": "EIA-820; EPA TRI", "SOURCEDATE": "2017\/01\/01 00:00:00", "VAL_METHOD": "IMAGERY\/OTHER", "VAL_DATE": "2018\/01\/31 00:00:00", "WEBSITE": "http:\/\/www.conocophillips.com\/", "OWNER": "PHILLIPS 66 COMPANY", "OPERNAME": "PHILLIPS 66 COMPANY", "RMP_ID": "1000011455", "EPA_ID": "100000085418", "POSREL": "WITHIN 166 FEET", "CAPACITY": 60000, "US_RANK": 93, "CRUDE": 60000, "VACDIST": 37100, "COKING": 20600, "THERMALOP": 0, "CATCRACK": 20390, "CATREFORM": 9420, "CATHYDCRCK": 0, "CATHYDTRT": 80860, "ALKY": 7250, "POLDIM": 0, "AROMATIC": 0, "ISOMER": 8000, "LUBES": 0, "OXYGENATES": 0, "HYDRGN": 34, "COKE": 5730, "SULFUR": 246, "ASPHALT": 0 }, "geometry": { "type": "Point", "coordinates": [ -108.48972, 45.78061 ] } },
{ "type": "Feature", "properties": { "OBJECTID": 58, "REF_ID": "REF420061", "NAME": "WARREN", "ADDRESS": "15 BRADLEY STREET", "CITY": "WARREN", "STATE": "PA", "ZIP": "16365", "ZIP4": "NOT AVAILABLE", "TELEPHONE": "(814) 723-1500", "TYPE": "MEDIUM SIZED MEDIUM COMPLEXITY REFINERY", "STATUS": "IN SERVICE", "POPULATION": 643, "COUNTY": "WARREN", "COUNTYFIPS": "42123", "COUNTRY": "USA", "LATITUDE": 41.8297, "LONGITUDE": -79.12742, "NAICS_CODE": "324110", "NAICS_DESC": "PETROLEUM REFINERIES", "SOURCE": "EIA-820; EPA TRI", "SOURCEDATE": "2017\/01\/01 00:00:00", "VAL_METHOD": "IMAGERY\/OTHER", "VAL_DATE": "2018\/01\/31 00:00:00", "WEBSITE": "http:\/\/www.urc.com", "OWNER": "RED APPLE GROUP INC", "OPERNAME": "UNITED REFINING CO", "RMP_ID": "1000011541", "EPA_ID": "100000066796", "POSREL": "WITHIN 166 FEET", "CAPACITY": 65000, "US_RANK": 90, "CRUDE": 65000, "VACDIST": 40000, "COKING": 0, "THERMALOP": 0, "CATCRACK": 25000, "CATREFORM": 13000, "CATHYDCRCK": 0, "CATHYDTRT": 51000, "ALKY": 4500, "POLDIM": 0, "AROMATIC": 0, "ISOMER": 8500, "LUBES": 0, "OXYGENATES": 0, "HYDRGN": 10, "COKE": 0, "SULFUR": 67, "ASPHALT": 22000 }, "geometry": { "type": "Point", "coordinates": [ -79.12742, 41.8297 ] } },
{ "type": "Feature", "properties": { "OBJECTID": 59, "REF_ID": "REF530062", "NAME": "ANACORTES", "ADDRESS": "8505 S. TEXAS RD", "CITY": "ANACORTES", "STATE": "WA", "ZIP": "98221", "ZIP4": "0622", "TELEPHONE": "(360) 293-1701", "TYPE": "MEDIUM TO LARGE COMPLEX REFINERY", "STATUS": "IN SERVICE", "POPULATION": 477, "COUNTY": "SKAGIT", "COUNTYFIPS": "53057", "COUNTRY": "USA", "LATITUDE": 48.47182, "LONGITUDE": -122.55912, "NAICS_CODE": "324110", "NAICS_DESC": "PETROLEUM REFINERIES", "SOURCE": "EIA-820; EPA TRI", "SOURCEDATE": "2017\/01\/01 00:00:00", "VAL_METHOD": "IMAGERY\/OTHER", "VAL_DATE": "2018\/01\/31 00:00:00", "WEBSITE": "http:\/\/www.shell.us", "OWNER": "ROYAL DUTCH\/SHELL GROUP", "OPERNAME": "SHELL OIL PRODUCTS US", "RMP_ID": "1000011818", "EPA_ID": "100000099252", "POSREL": "WITHIN 166 FEET", "CAPACITY": 145000, "US_RANK": 53, "CRUDE": 145000, "VACDIST": 65800, "COKING": 22400, "THERMALOP": 0, "CATCRACK": 52900, "CATREFORM": 17600, "CATHYDCRCK": 0, "CATHYDTRT": 128900, "ALKY": 12100, "POLDIM": 0, "AROMATIC": 0, "ISOMER": 0, "LUBES": 0, "OXYGENATES": 0, "HYDRGN": 0, "COKE": 8400, "SULFUR": 350, "ASPHALT": 0 }, "geometry": { "type": "Point", "coordinates": [ -122.55912, 48.47182 ] } },
{ "type": "Feature", "properties": { "OBJECTID": 60, "REF_ID": "REF220063", "NAME": "NORCO", "ADDRESS": "15536 RIVER RD", "CITY": "NORCO", "STATE": "LA", "ZIP": "70079", "ZIP4": "NOT AVAILABLE", "TELEPHONE": "(504) 465-6667", "TYPE": "LARGE COMPLEX REFINERY WITH A HIGH GASOLINE YIELD", "STATUS": "IN SERVICE", "POPULATION": 1200, "COUNTY": "ST. CHARLES", "COUNTYFIPS": "22089", "COUNTRY": "USA", "LATITUDE": 30.00314, "LONGITUDE": -90.40214, "NAICS_CODE": "324110", "NAICS_DESC": "PETROLEUM REFINERIES", "SOURCE": "EIA-820; EPA TRI", "SOURCEDATE": "2020\/06\/19 00:00:00", "VAL_METHOD": "IMAGERY\/OTHER", "VAL_DATE": "2020\/06\/19 00:00:00", "WEBSITE": "https:\/\/www.shell.us", "OWNER": "ROYAL DUTCH SHELL", "OPERNAME": "SHELL OIL PRODUCTS US (REFINING)", "RMP_ID": "1000011961", "EPA_ID": "100000026009", "POSREL": "WITHIN 166 FEET", "CAPACITY": 225800, "US_RANK": 30, "CRUDE": 225800, "VACDIST": 91300, "COKING": 24900, "THERMALOP": 0, "CATCRACK": 112400, "CATREFORM": 39200, "CATHYDCRCK": 42300, "CATHYDTRT": 185500, "ALKY": 16800, "POLDIM": 0, "AROMATIC": 0, "ISOMER": 0, "LUBES": 0, "OXYGENATES": 0, "HYDRGN": 0, "COKE": 7316, "SULFUR": 180, "ASPHALT": 0 }, "geometry": { "type": "Point", "coordinates": [ -90.40214, 30.00314 ] } },
{ "type": "Feature", "properties": { "OBJECTID": 61, "REF_ID": "REF010064", "NAME": "TUSCALOOSA", "ADDRESS": "1855 FAIRLAWN RD", "CITY": "TUSCALOOSA", "STATE": "AL", "ZIP": "35401", "ZIP4": "NOT AVAILABLE", "TELEPHONE": "(205) 391-3503", "TYPE": "SMALL \/ MEDIUM SIZED REFINERY", "STATUS": "IN SERVICE", "POPULATION": 259, "COUNTY": "TUSCALOOSA", "COUNTYFIPS": "01125", "COUNTRY": "USA", "LATITUDE": 33.2005, "LONGITUDE": -87.60783, "NAICS_CODE": "324110", "NAICS_DESC": "PETROLEUM REFINERIES", "SOURCE": "EIA-820; EPA TRI", "SOURCEDATE": "2017\/01\/01 00:00:00", "VAL_METHOD": "IMAGERY\/OTHER", "VAL_DATE": "2018\/01\/31 00:00:00", "WEBSITE": "http:\/\/www.huntrefining.com", "OWNER": "HUNT CONSLD INC", "OPERNAME": "HUNT REFINING CO", "RMP_ID": "1000012227", "EPA_ID": "100000049921", "POSREL": "WITHIN 166 FEET", "CAPACITY": 36000, "US_RANK": 106, "CRUDE": 36000, "VACDIST": 18000, "COKING": 30000, "THERMALOP": 0, "CATCRACK": 0, "CATREFORM": 15000, "CATHYDCRCK": 17500, "CATHYDTRT": 49100, "ALKY": 0, "POLDIM": 0, "AROMATIC": 0, "ISOMER": 4200, "LUBES": 0, "OXYGENATES": 0, "HYDRGN": 40, "COKE": 7120, "SULFUR": 195, "ASPHALT": 15000 }, "geometry": { "type": "Point", "coordinates": [ -87.60783, 33.2005 ] } },
{ "type": "Feature", "properties": { "OBJECTID": 62, "REF_ID": "REF480065", "NAME": "CORPUS CHRISTI", "ADDRESS": "1802 NUECES BAY BLVD.", "CITY": "CORPUS CHRISTI", "STATE": "TX", "ZIP": "78407", "ZIP4": "NOT AVAILABLE", "TELEPHONE": "(361) 844-4110", "TYPE": "LARGE COMPLEX REFINERY", "STATUS": "IN SERVICE", "POPULATION": 665, "COUNTY": "NUECES", "COUNTYFIPS": "48355", "COUNTRY": "USA", "LATITUDE": 27.80941, "LONGITUDE": -97.42639, "NAICS_CODE": "324110", "NAICS_DESC": "PETROLEUM REFINERIES", "SOURCE": "EIA-820; EPA ENVIROFACTS", "SOURCEDATE": "2017\/01\/01 00:00:00", "VAL_METHOD": "IMAGERY\/OTHER", "VAL_DATE": "2018\/01\/31 00:00:00", "WEBSITE": "http:\/\/citgorefining.com\/", "OWNER": "PDV AMERICA INC", "OPERNAME": "CITGO REFINING & CHEMICAL INC", "RMP_ID": "1000012233", "EPA_ID": "100000139566", "POSREL": "WITHIN 166 FEET", "CAPACITY": 157500, "US_RANK": 46, "CRUDE": 157500, "VACDIST": 85300, "COKING": 41300, "THERMALOP": 0, "CATCRACK": 78400, "CATREFORM": 46500, "CATHYDCRCK": 0, "CATHYDTRT": 264100, "ALKY": 23100, "POLDIM": 0, "AROMATIC": 16300, "ISOMER": 0, "LUBES": 0, "OXYGENATES": 0, "HYDRGN": 0, "COKE": 17374, "SULFUR": 368, "ASPHALT": 0 }, "geometry": { "type": "Point", "coordinates": [ -97.42639, 27.80941 ] } },
{ "type": "Feature", "properties": { "OBJECTID": 63, "REF_ID": "REF490066", "NAME": "WOODS CROSS", "ADDRESS": "393 SOUTH 800 WEST", "CITY": "WOODS CROSS", "STATE": "UT", "ZIP": "84087", "ZIP4": "1435", "TELEPHONE": "(801) 299-6625", "TYPE": "SMALL BUT HIGHLY COMPLEX REFINERY", "STATUS": "IN SERVICE", "POPULATION": 188, "COUNTY": "DAVIS", "COUNTYFIPS": "49011", "COUNTRY": "USA", "LATITUDE": 40.887, "LONGITUDE": -111.90389, "NAICS_CODE": "324110", "NAICS_DESC": "PETROLEUM REFINERIES", "SOURCE": "EIA-820; EPA TRI", "SOURCEDATE": "2017\/01\/01 00:00:00", "VAL_METHOD": "IMAGERY\/OTHER", "VAL_DATE": "2018\/01\/31 00:00:00", "WEBSITE": "http:\/\/www.hollyfrontier.com", "OWNER": "HOLLYFRONTIER CORP", "OPERNAME": "HOLLYFRONTIER WOODS CROSS REFINING L", "RMP_ID": "1000012241", "EPA_ID": "100000020327", "POSREL": "WITHIN 166 FEET", "CAPACITY": 39330, "US_RANK": 104, "CRUDE": 39330, "VACDIST": 0, "COKING": 0, "THERMALOP": 0, "CATCRACK": 16625, "CATREFORM": 6960, "CATHYDCRCK": 14250, "CATHYDTRT": 26200, "ALKY": 5300, "POLDIM": 0, "AROMATIC": 0, "ISOMER": 3000, "LUBES": 0, "OXYGENATES": 0, "HYDRGN": 0, "COKE": 0, "SULFUR": 10, "ASPHALT": 1800 }, "geometry": { "type": "Point", "coordinates": [ -111.90389, 40.887 ] } },
{ "type": "Feature", "properties": { "OBJECTID": 64, "REF_ID": "REF480067", "NAME": "PORT ARTHUR", "ADDRESS": "1801 S GULFWAY DRIVE", "CITY": "PORT ARTHUR", "STATE": "TX", "ZIP": "77640", "ZIP4": "NOT AVAILABLE", "TELEPHONE": "(409) 985-1591", "TYPE": "LARGE COMPLEX REFINERY", "STATUS": "IN SERVICE", "POPULATION": 840, "COUNTY": "JEFFERSON", "COUNTYFIPS": "48245", "COUNTRY": "USA", "LATITUDE": 29.86055, "LONGITUDE": -93.96562, "NAICS_CODE": "324110", "NAICS_DESC": "PETROLEUM REFINERIES", "SOURCE": "EIA-820; EPA TRI", "SOURCEDATE": "2017\/01\/01 00:00:00", "VAL_METHOD": "IMAGERY\/OTHER", "VAL_DATE": "2018\/01\/31 00:00:00", "WEBSITE": "http:\/\/www.valero.com", "OWNER": "VALERO ENERGY CORP", "OPERNAME": "PREMCOR REFINING GROUP INC", "RMP_ID": "1000012276", "EPA_ID": "100000116634", "POSREL": "WITHIN 166 FEET", "CAPACITY": 335000, "US_RANK": 11, "CRUDE": 335000, "VACDIST": 220000, "COKING": 95500, "THERMALOP": 0, "CATCRACK": 73000, "CATREFORM": 43500, "CATHYDCRCK": 113000, "CATHYDTRT": 331300, "ALKY": 19500, "POLDIM": 0, "AROMATIC": 0, "ISOMER": 0, "LUBES": 0, "OXYGENATES": 0, "HYDRGN": 0, "COKE": 32240, "SULFUR": 1490, "ASPHALT": 0 }, "geometry": { "type": "Point", "coordinates": [ -93.96562, 29.86055 ] } },
{ "type": "Feature", "properties": { "OBJECTID": 65, "REF_ID": "REF390068", "NAME": "TOLEDO", "ADDRESS": "1819 WOODVILLE ROAD", "CITY": "OREGON", "STATE": "OH", "ZIP": "43616", "ZIP4": "3159", "TELEPHONE": "(419) 698-6624", "TYPE": "HIGH CONVERSION LIGHT\/SWEET REFINERY", "STATUS": "IN SERVICE", "POPULATION": 525, "COUNTY": "LUCAS", "COUNTYFIPS": "39095", "COUNTRY": "USA", "LATITUDE": 41.6328, "LONGITUDE": -83.5019, "NAICS_CODE": "324110", "NAICS_DESC": "PETROLEUM REFINERIES", "SOURCE": "EIA-820; EPA TRI", "SOURCEDATE": "2017\/01\/01 00:00:00", "VAL_METHOD": "IMAGERY\/OTHER", "VAL_DATE": "2018\/01\/31 00:00:00", "WEBSITE": "http:\/\/www.pbfenergy.com", "OWNER": "PBF ENERGY CO LLC", "OPERNAME": "TOLEDO REFINING CO LLC", "RMP_ID": "1000012849", "EPA_ID": "100000032396", "POSREL": "WITHIN 166 FEET", "CAPACITY": 160000, "US_RANK": 45, "CRUDE": 160000, "VACDIST": 0, "COKING": 0, "THERMALOP": 0, "CATCRACK": 71000, "CATREFORM": 43200, "CATHYDCRCK": 39000, "CATHYDTRT": 149900, "ALKY": 9950, "POLDIM": 0, "AROMATIC": 10800, "ISOMER": 16000, "LUBES": 0, "OXYGENATES": 0, "HYDRGN": 0, "COKE": 0, "SULFUR": 116, "ASPHALT": 0 }, "geometry": { "type": "Point", "coordinates": [ -83.5019, 41.6328 ] } },
{ "type": "Feature", "properties": { "OBJECTID": 66, "REF_ID": "REF220069", "NAME": "BELLE CHASSE", "ADDRESS": "15551 HWY 23", "CITY": "BELLE CHASSE", "STATE": "LA", "ZIP": "70037", "ZIP4": "NOT AVAILABLE", "TELEPHONE": "(504) 656-3987", "TYPE": "MEDIUM SIZED COMPLEX REFINERY", "STATUS": "IN SERVICE", "POPULATION": 354, "COUNTY": "PLAQUEMINES", "COUNTYFIPS": "22075", "COUNTRY": "USA", "LATITUDE": 29.68239, "LONGITUDE": -89.97501, "NAICS_CODE": "324110", "NAICS_DESC": "PETROLEUM REFINERIES", "SOURCE": "EIA-820; EPA TRI", "SOURCEDATE": "2017\/01\/01 00:00:00", "VAL_METHOD": "IMAGERY\/OTHER", "VAL_DATE": "2018\/01\/31 00:00:00", "WEBSITE": "http:\/\/www.phillips66.com", "OWNER": "PHILLIPS 66 COMPANY", "OPERNAME": "PHILLIPS 66 COMPANY", "RMP_ID": "1000013136", "EPA_ID": "100000145461", "POSREL": "WITHIN 166 FEET", "CAPACITY": 247000, "US_RANK": 22, "CRUDE": 247000, "VACDIST": 103000, "COKING": 23400, "THERMALOP": 0, "CATCRACK": 96500, "CATREFORM": 43641, "CATHYDCRCK": 0, "CATHYDTRT": 195340, "ALKY": 35000, "POLDIM": 0, "AROMATIC": 15500, "ISOMER": 0, "LUBES": 0, "OXYGENATES": 0, "HYDRGN": 0, "COKE": 6716, "SULFUR": 125, "ASPHALT": 0 }, "geometry": { "type": "Point", "coordinates": [ -89.97501, 29.68239 ] } },
{ "type": "Feature", "properties": { "OBJECTID": 67, "REF_ID": "REF220070", "NAME": "KROTZ SPRINGS", "ADDRESS": "356 S LEVEE ROAD", "CITY": "KROTZ SPRINGS", "STATE": "LA", "ZIP": "70750", "ZIP4": "0453", "TELEPHONE": "(337) 566-0184", "TYPE": "SMALL MEDIUM COMPLEXITY REFINERY", "STATUS": "IN SERVICE", "POPULATION": 208, "COUNTY": "ST. LANDRY", "COUNTYFIPS": "22097", "COUNTRY": "USA", "LATITUDE": 30.5256, "LONGITUDE": -91.75003, "NAICS_CODE": "324110", "NAICS_DESC": "PETROLEUM REFINERIES", "SOURCE": "EIA-820; EPA TRI", "SOURCEDATE": "2017\/01\/01 00:00:00", "VAL_METHOD": "IMAGERY\/OTHER", "VAL_DATE": "2018\/01\/31 00:00:00", "WEBSITE": "http:\/\/www.alonusa.com", "OWNER": "ALON ISRAEL OIL COMPANY LTD", "OPERNAME": "ALON REFINING KROTZ SPRINGS INC", "RMP_ID": "1000014506", "EPA_ID": "100000113824", "POSREL": "WITHIN 166 FEET", "CAPACITY": 80000, "US_RANK": 80, "CRUDE": 80000, "VACDIST": 36200, "COKING": 0, "THERMALOP": 0, "CATCRACK": 33000, "CATREFORM": 12000, "CATHYDCRCK": 0, "CATHYDTRT": 32000, "ALKY": 0, "POLDIM": 0, "AROMATIC": 0, "ISOMER": 6220, "LUBES": 0, "OXYGENATES": 0, "HYDRGN": 0, "COKE": 0, "SULFUR": 0, "ASPHALT": 0 }, "geometry": { "type": "Point", "coordinates": [ -91.75003, 30.5256 ] } },
{ "type": "Feature", "properties": { "OBJECTID": 68, "REF_ID": "REF060071", "NAME": "EL SEGUNDO", "ADDRESS": "324 W EL SEGUNDO BLVD", "CITY": "EL SEGUNDO", "STATE": "CA", "ZIP": "90245", "ZIP4": "3680", "TELEPHONE": "(310) 615-5386", "TYPE": "LARGE FUELS REFINERY", "STATUS": "IN SERVICE", "POPULATION": 1200, "COUNTY": "LOS ANGELES", "COUNTYFIPS": "06037", "COUNTRY": "USA", "LATITUDE": 33.91022, "LONGITUDE": -118.40949, "NAICS_CODE": "324110", "NAICS_DESC": "PETROLEUM REFINERIES", "SOURCE": "EIA-820; EPA TRI", "SOURCEDATE": "2017\/01\/01 00:00:00", "VAL_METHOD": "IMAGERY\/OTHER", "VAL_DATE": "2018\/01\/31 00:00:00", "WEBSITE": "https:\/\/www.chevron.com\/", "OWNER": "CHEVRON CORP", "OPERNAME": "CHEVRON USA INC", "RMP_ID": "1000014555", "EPA_ID": "100000101454", "POSREL": "WITHIN 166 FEET", "CAPACITY": 269000, "US_RANK": 19, "CRUDE": 269000, "VACDIST": 169100, "COKING": 65710, "THERMALOP": 0, "CATCRACK": 66500, "CATREFORM": 44500, "CATHYDCRCK": 48000, "CATHYDTRT": 228500, "ALKY": 33300, "POLDIM": 0, "AROMATIC": 0, "ISOMER": 43300, "LUBES": 0, "OXYGENATES": 0, "HYDRGN": 77, "COKE": 25500, "SULFUR": 894, "ASPHALT": 0 }, "geometry": { "type": "Point", "coordinates": [ -118.40949, 33.91022 ] } },
{ "type": "Feature", "properties": { "OBJECTID": 69, "REF_ID": "REF170072", "NAME": "JOLIET", "ADDRESS": "25915 SE FRONTAGE ROAD", "CITY": "CHANNAHON", "STATE": "IL", "ZIP": "60481", "ZIP4": "8723", "TELEPHONE": "(815) 521-7334", "TYPE": "LARGE COMPLEX REFINERY", "STATUS": "IN SERVICE", "POPULATION": 576, "COUNTY": "WILL", "COUNTYFIPS": "17197", "COUNTRY": "USA", "LATITUDE": 41.41383, "LONGITUDE": -88.18346, "NAICS_CODE": "324110", "NAICS_DESC": "PETROLEUM REFINERIES", "SOURCE": "EIA-820; EPA TRI", "SOURCEDATE": "2017\/01\/01 00:00:00", "VAL_METHOD": "IMAGERY\/OTHER", "VAL_DATE": "2018\/01\/31 00:00:00", "WEBSITE": "http:\/\/corporate.exxonmobil.com", "OWNER": "EXXON MOBIL CORP", "OPERNAME": "EXXONMOBIL REFINING & SUPPLY CO", "RMP_ID": "1000014976", "EPA_ID": "100000146772", "POSREL": "WITHIN 166 FEET", "CAPACITY": 238600, "US_RANK": 26, "CRUDE": 238600, "VACDIST": 126700, "COKING": 56500, "THERMALOP": 0, "CATCRACK": 94500, "CATREFORM": 50000, "CATHYDCRCK": 0, "CATHYDTRT": 247500, "ALKY": 29100, "POLDIM": 0, "AROMATIC": 0, "ISOMER": 0, "LUBES": 0, "OXYGENATES": 0, "HYDRGN": 0, "COKE": 18595, "SULFUR": 683, "ASPHALT": 15100 }, "geometry": { "type": "Point", "coordinates": [ -88.18346, 41.41383 ] } },
{ "type": "Feature", "properties": { "OBJECTID": 70, "REF_ID": "REF420073", "NAME": "PHILADELPHIA (PES REFINING COMPLEX)", "ADDRESS": "3144 PASSYUNK AVE", "CITY": "PHILADELPHIA", "STATE": "PA", "ZIP": "19145", "ZIP4": "5208", "TELEPHONE": "(215) 339-7061", "TYPE": "LARGE MEDIUM COMPLEXITY REFINERY", "STATUS": "IN SERVICE", "POPULATION": 830, "COUNTY": "PHILADELPHIA", "COUNTYFIPS": "42101", "COUNTRY": "USA", "LATITUDE": 39.90319, "LONGITUDE": -75.20799, "NAICS_CODE": "324110", "NAICS_DESC": "PETROLEUM REFINERIES", "SOURCE": "EIA-820; EPA TRI", "SOURCEDATE": "2017\/01\/01 00:00:00", "VAL_METHOD": "IMAGERY\/OTHER", "VAL_DATE": "2018\/01\/31 00:00:00", "WEBSITE": "http:\/\/www.pes-companies.com", "OWNER": "CARLYLE GROUP", "OPERNAME": "PHILADELPHIA ENERGY SOLUTIONS", "RMP_ID": "1000015398", "EPA_ID": "100000028105", "POSREL": "WITHIN 166 FEET", "CAPACITY": 310000, "US_RANK": 13, "CRUDE": 310000, "VACDIST": 163200, "COKING": 0, "THERMALOP": 0, "CATCRACK": 127300, "CATREFORM": 56000, "CATHYDCRCK": 0, "CATHYDTRT": 300000, "ALKY": 26500, "POLDIM": 0, "AROMATIC": 4920, "ISOMER": 7600, "LUBES": 0, "OXYGENATES": 0, "HYDRGN": 0, "COKE": 0, "SULFUR": 76, "ASPHALT": 0 }, "geometry": { "type": "Point", "coordinates": [ -75.20799, 39.90319 ] } },
{ "type": "Feature", "properties": { "OBJECTID": 71, "REF_ID": "REF400075", "NAME": "PONCA CITY", "ADDRESS": "1000 S PINE STREET", "CITY": "PONCA CITY", "STATE": "OK", "ZIP": "74601", "ZIP4": "NOT AVAILABLE", "TELEPHONE": "(580) 767-4182", "TYPE": "LARGE HIGH-CONVERSION REFINERY", "STATUS": "IN SERVICE", "POPULATION": 850, "COUNTY": "KAY", "COUNTYFIPS": "40071", "COUNTRY": "USA", "LATITUDE": 36.68193, "LONGITUDE": -97.09105, "NAICS_CODE": "324110", "NAICS_DESC": "PETROLEUM REFINERIES", "SOURCE": "EIA-820; EPA TRI", "SOURCEDATE": "2017\/01\/01 00:00:00", "VAL_METHOD": "IMAGERY\/OTHER", "VAL_DATE": "2018\/01\/31 00:00:00", "WEBSITE": "http:\/\/www.phillips66.com", "OWNER": "PHILLIPS 66 COMPANY", "OPERNAME": "PHILLIPS 66 COMPANY", "RMP_ID": "1000015896", "EPA_ID": "100000038318", "POSREL": "WITHIN 166 FEET", "CAPACITY": 200000, "US_RANK": 34, "CRUDE": 200000, "VACDIST": 89042, "COKING": 22200, "THERMALOP": 0, "CATCRACK": 57000, "CATREFORM": 43500, "CATHYDCRCK": 0, "CATHYDTRT": 236889, "ALKY": 17574, "POLDIM": 0, "AROMATIC": 0, "ISOMER": 0, "LUBES": 0, "OXYGENATES": 0, "HYDRGN": 35, "COKE": 6300, "SULFUR": 0, "ASPHALT": 0 }, "geometry": { "type": "Point", "coordinates": [ -97.09105, 36.68193 ] } },
{ "type": "Feature", "properties": { "OBJECTID": 72, "REF_ID": "REF280076", "NAME": "PASCAGOULA", "ADDRESS": "250 INDUSTRIAL ROAD", "CITY": "PASCAGOULA", "STATE": "MS", "ZIP": "39581", "ZIP4": "3201", "TELEPHONE": "(228) 938-4548", "TYPE": "LARGE AND VERY COMPLEX REFINERY", "STATUS": "IN SERVICE", "POPULATION": 1610, "COUNTY": "JACKSON", "COUNTYFIPS": "28059", "COUNTRY": "USA", "LATITUDE": 30.34345, "LONGITUDE": -88.48672, "NAICS_CODE": "324110", "NAICS_DESC": "PETROLEUM REFINERIES", "SOURCE": "EIA-820; EPA TRI", "SOURCEDATE": "2017\/01\/01 00:00:00", "VAL_METHOD": "IMAGERY\/OTHER", "VAL_DATE": "2018\/01\/31 00:00:00", "WEBSITE": "https:\/\/www.chevron.com\/", "OWNER": "CHEVRON CORP", "OPERNAME": "CHEVRON USA INC", "RMP_ID": "1000016180", "EPA_ID": "100000086989", "POSREL": "WITHIN 166 FEET", "CAPACITY": 340000, "US_RANK": 9, "CRUDE": 340000, "VACDIST": 314000, "COKING": 98000, "THERMALOP": 0, "CATCRACK": 86000, "CATREFORM": 86000, "CATHYDCRCK": 106800, "CATHYDTRT": 276300, "ALKY": 18600, "POLDIM": 0, "AROMATIC": 21000, "ISOMER": 0, "LUBES": 25000, "OXYGENATES": 0, "HYDRGN": 230, "COKE": 35500, "SULFUR": 1355, "ASPHALT": 20000 }, "geometry": { "type": "Point", "coordinates": [ -88.48672, 30.34345 ] } },
{ "type": "Feature", "properties": { "OBJECTID": 73, "REF_ID": "REF020077", "NAME": "VALDEZ", "ADDRESS": "2.5 MILE DAYVILLE ROAD", "CITY": "VALDEZ", "STATE": "AK", "ZIP": "99686", "ZIP4": "NOT AVAILABLE", "TELEPHONE": "(907) 339-6635", "TYPE": "SMALL SIMPLE REFINERY", "STATUS": "IN SERVICE", "POPULATION": 38, "COUNTY": "VALDEZ-CORDOVA", "COUNTYFIPS": "02261", "COUNTRY": "USA", "LATITUDE": 61.08396, "LONGITUDE": -146.25057, "NAICS_CODE": "324110", "NAICS_DESC": "PETROLEUM REFINERIES", "SOURCE": "EIA-820; EPA TRI", "SOURCEDATE": "2017\/01\/01 00:00:00", "VAL_METHOD": "IMAGERY\/OTHER", "VAL_DATE": "2018\/01\/31 00:00:00", "WEBSITE": "http:\/\/www.petrostar.com", "OWNER": "ARCTIC SLOPE REGIONAL CORP", "OPERNAME": "PETRO STAR INC", "RMP_ID": "1000016896", "EPA_ID": "100000212888", "POSREL": "WITHIN 166 FEET", "CAPACITY": 55000, "US_RANK": 96, "CRUDE": 55000, "VACDIST": 0, "COKING": 0, "THERMALOP": 0, "CATCRACK": 0, "CATREFORM": 0, "CATHYDCRCK": 0, "CATHYDTRT": 0, "ALKY": 0, "POLDIM": 0, "AROMATIC": 0, "ISOMER": 0, "LUBES": 0, "OXYGENATES": 0, "HYDRGN": 0, "COKE": 0, "SULFUR": 0, "ASPHALT": 0 }, "geometry": { "type": "Point", "coordinates": [ -146.25057, 61.08396 ] } },
{ "type": "Feature", "properties": { "OBJECTID": 74, "REF_ID": "REF100078", "NAME": "DELAWARE CITY", "ADDRESS": "4550 WRANGLE HILL ROAD", "CITY": "DELAWARE CITY", "STATE": "DE", "ZIP": "19720", "ZIP4": "NOT AVAILABLE", "TELEPHONE": "(856) 224-4354", "TYPE": "LARGE COMPLEX REFINERY", "STATUS": "IN SERVICE", "POPULATION": 600, "COUNTY": "NEWCASTLE", "COUNTYFIPS": "10003", "COUNTRY": "USA", "LATITUDE": 39.5873, "LONGITUDE": -75.63058, "NAICS_CODE": "324110", "NAICS_DESC": "PETROLEUM REFINERIES", "SOURCE": "EIA-820; EPA TRI", "SOURCEDATE": "2017\/01\/01 00:00:00", "VAL_METHOD": "IMAGERY\/OTHER", "VAL_DATE": "2018\/01\/31 00:00:00", "WEBSITE": "http:\/\/www.pbfenergy.com", "OWNER": "PBF ENERGY CO LLC", "OPERNAME": "DELAWARE CITY REFINING CO LLC", "RMP_ID": "1000017237", "EPA_ID": "100000072841", "POSREL": "WITHIN 166 FEET", "CAPACITY": 182200, "US_RANK": 40, "CRUDE": 182200, "VACDIST": 104600, "COKING": 48400, "THERMALOP": 0, "CATCRACK": 85300, "CATREFORM": 41000, "CATHYDCRCK": 20000, "CATHYDTRT": 151500, "ALKY": 11729, "POLDIM": 0, "AROMATIC": 5191, "ISOMER": 12000, "LUBES": 0, "OXYGENATES": 0, "HYDRGN": 40, "COKE": 13620, "SULFUR": 596, "ASPHALT": 0 }, "geometry": { "type": "Point", "coordinates": [ -75.63058, 39.5873 ] } },
{ "type": "Feature", "properties": { "OBJECTID": 75, "REF_ID": "REF060079", "NAME": "SOUTH GATE", "ADDRESS": "9302 GARFIELD AVENUE", "CITY": "SOUTH GATE", "STATE": "CA", "ZIP": "90280", "ZIP4": "1519", "TELEPHONE": "(562) 928-7000", "TYPE": "VERY SMALL REFINERY", "STATUS": "IN SERVICE", "POPULATION": 62, "COUNTY": "LOS ANGELES", "COUNTYFIPS": "06037", "COUNTRY": "USA", "LATITUDE": 33.9463, "LONGITUDE": -118.16704, "NAICS_CODE": "324110", "NAICS_DESC": "PETROLEUM REFINERIES", "SOURCE": "EIA-820; EPA TRI", "SOURCEDATE": "2017\/01\/01 00:00:00", "VAL_METHOD": "IMAGERY\/OTHER", "VAL_DATE": "2018\/01\/31 00:00:00", "WEBSITE": "http:\/\/www.lundaythagard.com", "OWNER": "WORLD OIL CO", "OPERNAME": "LUNDAY THAGARD CO", "RMP_ID": "1000017544", "EPA_ID": "100000212566", "POSREL": "WITHIN 166 FEET", "CAPACITY": 8500, "US_RANK": 129, "CRUDE": 8500, "VACDIST": 7000, "COKING": 0, "THERMALOP": 0, "CATCRACK": 0, "CATREFORM": 0, "CATHYDCRCK": 0, "CATHYDTRT": 0, "ALKY": 0, "POLDIM": 0, "AROMATIC": 0, "ISOMER": 0, "LUBES": 0, "OXYGENATES": 0, "HYDRGN": 0, "COKE": 0, "SULFUR": 0, "ASPHALT": 5833 }, "geometry": { "type": "Point", "coordinates": [ -118.16704, 33.9463 ] } },
{ "type": "Feature", "properties": { "OBJECTID": 76, "REF_ID": "REF490080", "NAME": "SALT LAKE CITY", "ADDRESS": "474 WEST 900 NORTH", "CITY": "SALT LAKE CITY", "STATE": "UT", "ZIP": "84116", "ZIP4": "1494", "TELEPHONE": "(801) 366-2036", "TYPE": "SMALL MEDIUM COMPLEXITY REFINERY", "STATUS": "IN SERVICE", "POPULATION": 260, "COUNTY": "SALT LAKE", "COUNTYFIPS": "49035", "COUNTRY": "USA", "LATITUDE": 40.79395, "LONGITUDE": -111.90812, "NAICS_CODE": "324110", "NAICS_DESC": "PETROLEUM REFINERIES", "SOURCE": "EIA-820; EPA TRI", "SOURCEDATE": "2020\/06\/18 00:00:00", "VAL_METHOD": "IMAGERY\/OTHER", "VAL_DATE": "2020\/06\/22 00:00:00", "WEBSITE": "https:\/\/www.marathonpetroleum.com", "OWNER": "MARATHON PETROLEUM CORP", "OPERNAME": "MARATHON PETROLEUM CO LP", "RMP_ID": "1000017618", "EPA_ID": "100000097897", "POSREL": "WITHIN 166 FEET", "CAPACITY": 63000, "US_RANK": 91, "CRUDE": 57500, "VACDIST": 0, "COKING": 0, "THERMALOP": 0, "CATCRACK": 25400, "CATREFORM": 11000, "CATHYDCRCK": 0, "CATHYDTRT": 41900, "ALKY": 7000, "POLDIM": 0, "AROMATIC": 0, "ISOMER": 0, "LUBES": 0, "OXYGENATES": 0, "HYDRGN": 0, "COKE": 0, "SULFUR": 18, "ASPHALT": 0 }, "geometry": { "type": "Point", "coordinates": [ -111.90812, 40.79395 ] } },
{ "type": "Feature", "properties": { "OBJECTID": 77, "REF_ID": "REF480082", "NAME": "EL PASO", "ADDRESS": "6500 TROWBRIDGE DRIVE\/212 N CLARK DR", "CITY": "EL PASO", "STATE": "TX", "ZIP": "79905", "ZIP4": "NOT AVAILABLE", "TELEPHONE": "(915) 775-3319", "TYPE": "MEDIUM SIZED MEDIUM COMPLEXITY REFINERY", "STATUS": "IN SERVICE", "POPULATION": 440, "COUNTY": "EL PASO", "COUNTYFIPS": "48141", "COUNTRY": "USA", "LATITUDE": 31.76949, "LONGITUDE": -106.4036, "NAICS_CODE": "324110", "NAICS_DESC": "PETROLEUM REFINERIES", "SOURCE": "EIA-820; EPA TRI", "SOURCEDATE": "2020\/06\/18 00:00:00", "VAL_METHOD": "IMAGERY\/OTHER", "VAL_DATE": "2020\/06\/22 00:00:00", "WEBSITE": "https:\/\/www.marathonpetroleum.com", "OWNER": "MARATHON PETROLEUM CORP", "OPERNAME": "MARATHON PETROLEUM CO LP", "RMP_ID": "1000018238", "EPA_ID": "100000148119", "POSREL": "WITHIN 166 FEET", "CAPACITY": 122000, "US_RANK": 57, "CRUDE": 122000, "VACDIST": 56200, "COKING": 0, "THERMALOP": 0, "CATCRACK": 31000, "CATREFORM": 25500, "CATHYDCRCK": 0, "CATHYDTRT": 122700, "ALKY": 13300, "POLDIM": 0, "AROMATIC": 0, "ISOMER": 14600, "LUBES": 0, "OXYGENATES": 0, "HYDRGN": 12, "COKE": 0, "SULFUR": 0, "ASPHALT": 7000 }, "geometry": { "type": "Point", "coordinates": [ -106.4036, 31.76949 ] } },
{ "type": "Feature", "properties": { "OBJECTID": 78, "REF_ID": "REF480083", "NAME": "CORPUS CHRISTI EAST AND WEST", "ADDRESS": "1607 NUECES BAY BLVD", "CITY": "CORPUS CHRISTI", "STATE": "TX", "ZIP": "78407", "ZIP4": "NOT AVAILABLE", "TELEPHONE": "(361) 241-4811", "TYPE": "VERY LARGE COMPLEX REFINERY", "STATUS": "IN SERVICE", "POPULATION": 22, "COUNTY": "NUECES", "COUNTYFIPS": "48355", "COUNTRY": "USA", "LATITUDE": 27.80624, "LONGITUDE": -97.42306, "NAICS_CODE": "324110", "NAICS_DESC": "PETROLEUM REFINERIES", "SOURCE": "EIA-820; EPA ENVIROFACTS", "SOURCEDATE": "2017\/01\/01 00:00:00", "VAL_METHOD": "IMAGERY\/OTHER", "VAL_DATE": "2018\/01\/31 00:00:00", "WEBSITE": "http:\/\/www.fhr.com", "OWNER": "KOCH INDUSTRIES INC", "OPERNAME": "FLINT HILLS RESOURCES LP", "RMP_ID": "1000018697", "EPA_ID": "100000119043", "POSREL": "WITHIN 166 FEET", "CAPACITY": 296470, "US_RANK": 14, "CRUDE": 296470, "VACDIST": 87500, "COKING": 13300, "THERMALOP": 0, "CATCRACK": 104000, "CATREFORM": 0, "CATHYDCRCK": 12300, "CATHYDTRT": 354800, "ALKY": 15500, "POLDIM": 0, "AROMATIC": 0, "ISOMER": 13300, "LUBES": 0, "OXYGENATES": 0, "HYDRGN": 0, "COKE": 3968, "SULFUR": 426, "ASPHALT": 0 }, "geometry": { "type": "Point", "coordinates": [ -97.42306, 27.80624 ] } },
{ "type": "Feature", "properties": { "OBJECTID": 79, "REF_ID": "REF530085", "NAME": "ANACORTES", "ADDRESS": "WEST MARCH'S POINT ROAD", "CITY": "ANACORTES", "STATE": "WA", "ZIP": "98221", "ZIP4": "0622", "TELEPHONE": "(360) 293-9126", "TYPE": "MEDIUM TO LARGE COMPLEX REFINERY", "STATUS": "IN SERVICE", "POPULATION": 390, "COUNTY": "SKAGIT", "COUNTYFIPS": "53057", "COUNTRY": "USA", "LATITUDE": 48.493965676000073, "LONGITUDE": -122.56597653399996, "NAICS_CODE": "324110", "NAICS_DESC": "PETROLEUM REFINERIES", "SOURCE": "EIA-820; EPA TRI", "SOURCEDATE": "2020\/06\/18 00:00:00", "VAL_METHOD": "IMAGERY\/OTHER", "VAL_DATE": "2020\/06\/22 00:00:00", "WEBSITE": "https:\/\/www.marathonpetroleum.com", "OWNER": "MARATHON PETROLEUM CORP", "OPERNAME": "MARATHON PETROLEUM CO LP", "RMP_ID": "1000018956", "EPA_ID": "100000028034", "POSREL": "WITHIN 166 FEET", "CAPACITY": 120000, "US_RANK": 59, "CRUDE": 120000, "VACDIST": 50500, "COKING": 0, "THERMALOP": 0, "CATCRACK": 51100, "CATREFORM": 29200, "CATHYDCRCK": 0, "CATHYDTRT": 98000, "ALKY": 13800, "POLDIM": 0, "AROMATIC": 0, "ISOMER": 7600, "LUBES": 0, "OXYGENATES": 0, "HYDRGN": 0, "COKE": 0, "SULFUR": 54, "ASPHALT": 0 }, "geometry": { "type": "Point", "coordinates": [ -122.565976533999958, 48.493965676000073 ] } },
{ "type": "Feature", "properties": { "OBJECTID": 80, "REF_ID": "REF220086", "NAME": "GARYVILLE", "ADDRESS": "4663 WEST AIRLINE HWY", "CITY": "GARYVILLE", "STATE": "LA", "ZIP": "70084", "ZIP4": "NOT AVAILABLE", "TELEPHONE": "(985) 535-2241", "TYPE": "VERY LARGE COMPLEX REFINERY", "STATUS": "IN SERVICE", "POPULATION": 930, "COUNTY": "ST. JOHN THE BAPTIST", "COUNTYFIPS": "22095", "COUNTRY": "USA", "LATITUDE": 30.06129, "LONGITUDE": -90.59639, "NAICS_CODE": "324110", "NAICS_DESC": "PETROLEUM REFINERIES", "SOURCE": "EIA-820; EPA TRI", "SOURCEDATE": "2017\/01\/01 00:00:00", "VAL_METHOD": "IMAGERY\/OTHER", "VAL_DATE": "2018\/01\/31 00:00:00", "WEBSITE": "https:\/\/www.marathonpetroleum.com", "OWNER": "MARATHON PETROLEUM CORP", "OPERNAME": "MARATHON PETROLEUM CO LP", "RMP_ID": "1000019402", "EPA_ID": "100000105726", "POSREL": "WITHIN 166 FEET", "CAPACITY": 543000, "US_RANK": 3, "CRUDE": 543000, "VACDIST": 301000, "COKING": 89800, "THERMALOP": 0, "CATCRACK": 136800, "CATREFORM": 122100, "CATHYDCRCK": 111200, "CATHYDTRT": 568500, "ALKY": 33000, "POLDIM": 0, "AROMATIC": 0, "ISOMER": 72500, "LUBES": 0, "OXYGENATES": 0, "HYDRGN": 0, "COKE": 33000, "SULFUR": 1476, "ASPHALT": 33000 }, "geometry": { "type": "Point", "coordinates": [ -90.59639, 30.06129 ] } },
{ "type": "Feature", "properties": { "OBJECTID": 81, "REF_ID": "REF560087", "NAME": "NEW CASTLE", "ADDRESS": "740 WEST MAIN STREET", "CITY": "NEWCASTLE", "STATE": "WY", "ZIP": "82701", "ZIP4": "NOT AVAILABLE", "TELEPHONE": "(307) 746-4445", "TYPE": "VERY SMALL MEDIUM COMPLEXITY REFINERY", "STATUS": "IN SERVICE", "POPULATION": 94, "COUNTY": "WESTON", "COUNTYFIPS": "56045", "COUNTRY": "USA", "LATITUDE": 43.84958, "LONGITUDE": -104.21464, "NAICS_CODE": "324110", "NAICS_DESC": "PETROLEUM REFINERIES", "SOURCE": "EIA-820; EPA TRI", "SOURCEDATE": "2017\/01\/01 00:00:00", "VAL_METHOD": "IMAGERY\/OTHER", "VAL_DATE": "2018\/01\/31 00:00:00", "WEBSITE": "http:\/\/www.parpacific.com", "OWNER": "PAR PETROLEUM INC", "OPERNAME": "HERMES CONSOLIDATED LLC", "RMP_ID": "1000019604", "EPA_ID": "100000127445", "POSREL": "WITHIN 166 FEET", "CAPACITY": 18000, "US_RANK": 120, "CRUDE": 18000, "VACDIST": 0, "COKING": 0, "THERMALOP": 0, "CATCRACK": 7000, "CATREFORM": 3500, "CATHYDCRCK": 0, "CATHYDTRT": 10000, "ALKY": 1300, "POLDIM": 0, "AROMATIC": 0, "ISOMER": 0, "LUBES": 0, "OXYGENATES": 0, "HYDRGN": 0, "COKE": 0, "SULFUR": 0, "ASPHALT": 0 }, "geometry": { "type": "Point", "coordinates": [ -104.21464, 43.84958 ] } },
{ "type": "Feature", "properties": { "OBJECTID": 82, "REF_ID": "REF480088", "NAME": "BORGER", "ADDRESS": "SPUR 119 NORTH", "CITY": "BORGER", "STATE": "TX", "ZIP": "79007", "ZIP4": "0271", "TELEPHONE": "(806) 275-1945", "TYPE": "MEDIUM SIZED REFINERY INCLUDES AN NGL FRACTIONATION FACILITY", "STATUS": "IN SERVICE", "POPULATION": 709, "COUNTY": "HUTCHINSON", "COUNTYFIPS": "48233", "COUNTRY": "USA", "LATITUDE": 35.69769, "LONGITUDE": -101.36159, "NAICS_CODE": "324110", "NAICS_DESC": "PETROLEUM REFINERIES", "SOURCE": "EIA-820; EPA TRI", "SOURCEDATE": "2017\/01\/01 00:00:00", "VAL_METHOD": "IMAGERY\/OTHER", "VAL_DATE": "2018\/01\/31 00:00:00", "WEBSITE": "http:\/\/www.phillips66.com", "OWNER": "WRB REFINING LP (PHILLIPS66\/CENOVUS)", "OPERNAME": "PHILLIPS 66 COMPANY", "RMP_ID": "1000019677", "EPA_ID": "100000162343", "POSREL": "WITHIN 166 FEET", "CAPACITY": 146000, "US_RANK": 51, "CRUDE": 146000, "VACDIST": 80000, "COKING": 26100, "THERMALOP": 0, "CATCRACK": 55048, "CATREFORM": 30310, "CATHYDCRCK": 0, "CATHYDTRT": 187380, "ALKY": 14000, "POLDIM": 0, "AROMATIC": 0, "ISOMER": 61000, "LUBES": 0, "OXYGENATES": 0, "HYDRGN": 91, "COKE": 8000, "SULFUR": 340, "ASPHALT": 0 }, "geometry": { "type": "Point", "coordinates": [ -101.36159, 35.69769 ] } },
{ "type": "Feature", "properties": { "OBJECTID": 83, "REF_ID": "REF390089", "NAME": "LIMA", "ADDRESS": "1150 SOUTH METCALF STREET", "CITY": "LIMA", "STATE": "OH", "ZIP": "45804", "ZIP4": "1199", "TELEPHONE": "(419) 226-2551", "TYPE": "MEDIUM SIZED MEDIUM COMPLEXITY REFINERY", "STATUS": "IN SERVICE", "POPULATION": 393, "COUNTY": "ALLEN", "COUNTYFIPS": "39003", "COUNTRY": "USA", "LATITUDE": 40.71772, "LONGITUDE": -84.12643, "NAICS_CODE": "324110", "NAICS_DESC": "PETROLEUM REFINERIES", "SOURCE": "EIA-820; EPA TRI", "SOURCEDATE": "2017\/01\/01 00:00:00", "VAL_METHOD": "IMAGERY\/OTHER", "VAL_DATE": "2018\/01\/31 00:00:00", "WEBSITE": "http:\/\/www.huskyenergy.com", "OWNER": "HUSKY ENERGY INC", "OPERNAME": "LIMA REFINING COMPANY", "RMP_ID": "1000019716", "EPA_ID": "100000148681", "POSREL": "WITHIN 166 FEET", "CAPACITY": 177000, "US_RANK": 41, "CRUDE": 177000, "VACDIST": 53000, "COKING": 22000, "THERMALOP": 0, "CATCRACK": 43035, "CATREFORM": 53900, "CATHYDCRCK": 25000, "CATHYDTRT": 158000, "ALKY": 0, "POLDIM": 0, "AROMATIC": 9200, "ISOMER": 27700, "LUBES": 0, "OXYGENATES": 0, "HYDRGN": 0, "COKE": 4200, "SULFUR": 110, "ASPHALT": 0 }, "geometry": { "type": "Point", "coordinates": [ -84.12643, 40.71772 ] } },
{ "type": "Feature", "properties": { "OBJECTID": 84, "REF_ID": "REF020090", "NAME": "KENAI", "ADDRESS": "54741 TESORO ROAD", "CITY": "KENAI", "STATE": "AK", "ZIP": "99611", "ZIP4": "NOT AVAILABLE", "TELEPHONE": "(907) 261-7221", "TYPE": "MEDIUM SIZED FUELS REFINERY", "STATUS": "IN SERVICE", "POPULATION": 230, "COUNTY": "KENAI PENINSULA", "COUNTYFIPS": "02122", "COUNTRY": "USA", "LATITUDE": 60.68387, "LONGITUDE": -151.36605, "NAICS_CODE": "324110", "NAICS_DESC": "PETROLEUM REFINERIES", "SOURCE": "EIA-820; EPA TRI", "SOURCEDATE": "2020\/06\/18 00:00:00", "VAL_METHOD": "IMAGERY\/OTHER", "VAL_DATE": "2020\/06\/18 00:00:00", "WEBSITE": "https:\/\/www.marathonpetroleum.com", "OWNER": "MARATHON PETROLEUM CORP", "OPERNAME": "MARATHON PETROLEUM CO LP", "RMP_ID": "1000020144", "EPA_ID": "100000142357", "POSREL": "WITHIN 166 FEET", "CAPACITY": 72000, "US_RANK": 85, "CRUDE": 62700, "VACDIST": 26000, "COKING": 0, "THERMALOP": 0, "CATCRACK": 0, "CATREFORM": 10600, "CATHYDCRCK": 12340, "CATHYDTRT": 24500, "ALKY": 0, "POLDIM": 0, "AROMATIC": 0, "ISOMER": 5000, "LUBES": 0, "OXYGENATES": 0, "HYDRGN": 13, "COKE": 0, "SULFUR": 25, "ASPHALT": 10000 }, "geometry": { "type": "Point", "coordinates": [ -151.36605, 60.68387 ] } },
{ "type": "Feature", "properties": { "OBJECTID": 85, "REF_ID": "REF220091", "NAME": "MERAUX", "ADDRESS": "2500 EAST ST. BERNARD HWY", "CITY": "MERAUX", "STATE": "LA", "ZIP": "70075", "ZIP4": "NOT AVAILABLE", "TELEPHONE": "(504) 271-4141", "TYPE": "MEDIUM COMPLEX REFINERY", "STATUS": "IN SERVICE", "POPULATION": 274, "COUNTY": "ST. BERNARD", "COUNTYFIPS": "22087", "COUNTRY": "USA", "LATITUDE": 29.93542, "LONGITUDE": -89.93908, "NAICS_CODE": "324110", "NAICS_DESC": "PETROLEUM REFINERIES", "SOURCE": "EIA-820; EPA TRI", "SOURCEDATE": "2017\/01\/01 00:00:00", "VAL_METHOD": "IMAGERY\/OTHER", "VAL_DATE": "2018\/01\/31 00:00:00", "WEBSITE": "http:\/\/www.valero.com", "OWNER": "VALERO ENERGY CORP", "OPERNAME": "VALERO ENERGY CORPORATION", "RMP_ID": "1000020270", "EPA_ID": "100000064146", "POSREL": "WITHIN 166 FEET", "CAPACITY": 125000, "US_RANK": 56, "CRUDE": 125000, "VACDIST": 60000, "COKING": 0, "THERMALOP": 0, "CATCRACK": 0, "CATREFORM": 29282, "CATHYDCRCK": 45300, "CATHYDTRT": 92700, "ALKY": 0, "POLDIM": 0, "AROMATIC": 0, "ISOMER": 0, "LUBES": 0, "OXYGENATES": 0, "HYDRGN": 0, "COKE": 0, "SULFUR": 224, "ASPHALT": 0 }, "geometry": { "type": "Point", "coordinates": [ -89.93908, 29.93542 ] } },
{ "type": "Feature", "properties": { "OBJECTID": 86, "REF_ID": "REF400092", "NAME": "WYNNEWOOD", "ADDRESS": "906 S. POWELL", "CITY": "WYNNEWOOD", "STATE": "OK", "ZIP": "73098", "ZIP4": "NOT AVAILABLE", "TELEPHONE": "(405) 665-6601", "TYPE": "SMALL MEDIUM COMPLEXITY REFINERY WITH BOTH FCC & HYDROCRACKER", "STATUS": "IN SERVICE", "POPULATION": 260, "COUNTY": "GARVIN", "COUNTYFIPS": "40049", "COUNTRY": "USA", "LATITUDE": 34.63057, "LONGITUDE": -97.16788, "NAICS_CODE": "324110", "NAICS_DESC": "PETROLEUM REFINERIES", "SOURCE": "EIA-820; EPA TRI", "SOURCEDATE": "2017\/01\/01 00:00:00", "VAL_METHOD": "IMAGERY\/OTHER", "VAL_DATE": "2018\/01\/31 00:00:00", "WEBSITE": "http:\/\/www.cvrrefining.com", "OWNER": "CVR ENERGY", "OPERNAME": "WYNNEWOOD REFINING CO", "RMP_ID": "1000020760", "EPA_ID": "100000123591", "POSREL": "WITHIN 166 FEET", "CAPACITY": 70000, "US_RANK": 88, "CRUDE": 70000, "VACDIST": 40300, "COKING": 0, "THERMALOP": 0, "CATCRACK": 19000, "CATREFORM": 17000, "CATHYDCRCK": 17800, "CATHYDTRT": 67500, "ALKY": 5500, "POLDIM": 0, "AROMATIC": 21000, "ISOMER": 0, "LUBES": 0, "OXYGENATES": 0, "HYDRGN": 10, "COKE": 0, "SULFUR": 0, "ASPHALT": 7000 }, "geometry": { "type": "Point", "coordinates": [ -97.16788, 34.63057 ] } },
{ "type": "Feature", "properties": { "OBJECTID": 87, "REF_ID": "REF270093", "NAME": "SAINT PAUL", "ADDRESS": "12555 CLARK RD", "CITY": "ROSEMOUNT", "STATE": "MN", "ZIP": "55068", "ZIP4": "NOT AVAILABLE", "TELEPHONE": "(651) 438-1331", "TYPE": "LARGE HIGHLY COMPLEX REFINERY THAT PROCESSES VERY HEAVY CRUDES", "STATUS": "IN SERVICE", "POPULATION": 918, "COUNTY": "DAKOTA", "COUNTYFIPS": "27037", "COUNTRY": "USA", "LATITUDE": 44.76598, "LONGITUDE": -93.04178, "NAICS_CODE": "324110", "NAICS_DESC": "PETROLEUM REFINERIES", "SOURCE": "EIA-820; EPA TRI", "SOURCEDATE": "2017\/01\/01 00:00:00", "VAL_METHOD": "IMAGERY\/OTHER", "VAL_DATE": "2018\/01\/31 00:00:00", "WEBSITE": "http:\/\/www.fhr.com", "OWNER": "KOCH INDUSTRIES INC", "OPERNAME": "FLINT HILLS RESOURCES LP", "RMP_ID": "1000021532", "EPA_ID": "100000139833", "POSREL": "WITHIN 166 FEET", "CAPACITY": 290000, "US_RANK": 16, "CRUDE": 290000, "VACDIST": 234000, "COKING": 62500, "THERMALOP": 0, "CATCRACK": 82600, "CATREFORM": 37500, "CATHYDCRCK": 47700, "CATHYDTRT": 329000, "ALKY": 12500, "POLDIM": 0, "AROMATIC": 0, "ISOMER": 18000, "LUBES": 0, "OXYGENATES": 0, "HYDRGN": 176, "COKE": 23600, "SULFUR": 1142, "ASPHALT": 45000 }, "geometry": { "type": "Point", "coordinates": [ -93.04178, 44.76598 ] } },
{ "type": "Feature", "properties": { "OBJECTID": 88, "REF_ID": "REF220094", "NAME": "LAKE CHARLES", "ADDRESS": "4359 WEST TANK FARM RD", "CITY": "LAKE CHARLES", "STATE": "LA", "ZIP": "70605", "ZIP4": "NOT AVAILABLE", "TELEPHONE": "(337) 480-6637", "TYPE": "SMALL SIMPLE REFINERY", "STATUS": "IN SERVICE", "POPULATION": 38, "COUNTY": "CALCASIEU", "COUNTYFIPS": "22019", "COUNTRY": "USA", "LATITUDE": 30.13371, "LONGITUDE": -93.32054, "NAICS_CODE": "324110", "NAICS_DESC": "PETROLEUM REFINERIES", "SOURCE": "EIA-820; EPA TRI", "SOURCEDATE": "2017\/01\/01 00:00:00", "VAL_METHOD": "IMAGERY\/OTHER", "VAL_DATE": "2018\/01\/31 00:00:00", "WEBSITE": "http:\/\/www.calcasieurefining.com", "OWNER": "TRANSWORLD OIL USA INC", "OPERNAME": "CALCASIEU REFINING CO", "RMP_ID": "1000021607", "EPA_ID": "100000071469", "POSREL": "WITHIN 166 FEET", "CAPACITY": 104000, "US_RANK": 62, "CRUDE": 104000, "VACDIST": 36000, "COKING": 0, "THERMALOP": 0, "CATCRACK": 0, "CATREFORM": 0, "CATHYDCRCK": 0, "CATHYDTRT": 0, "ALKY": 0, "POLDIM": 0, "AROMATIC": 0, "ISOMER": 7000, "LUBES": 0, "OXYGENATES": 0, "HYDRGN": 0, "COKE": 0, "SULFUR": 0, "ASPHALT": 0 }, "geometry": { "type": "Point", "coordinates": [ -93.32054, 30.13371 ] } },
{ "type": "Feature", "properties": { "OBJECTID": 89, "REF_ID": "REF480095", "NAME": "PORT ARTHUR", "ADDRESS": "HWY 366 AND 32ND STREET", "CITY": "PORT ARTHUR", "STATE": "TX", "ZIP": "77642", "ZIP4": "NOT AVAILABLE", "TELEPHONE": "(409) 963-8319", "TYPE": "LARGE COMPLEX REFINERY", "STATUS": "IN SERVICE", "POPULATION": 500, "COUNTY": "JEFFERSON", "COUNTYFIPS": "48245", "COUNTRY": "USA", "LATITUDE": 29.96016, "LONGITUDE": -93.88862, "NAICS_CODE": "324110", "NAICS_DESC": "PETROLEUM REFINERIES", "SOURCE": "EIA-820; EPA TRI", "SOURCEDATE": "2017\/01\/01 00:00:00", "VAL_METHOD": "IMAGERY\/OTHER", "VAL_DATE": "2018\/01\/31 00:00:00", "WEBSITE": "http:\/\/www.totalpetrochemicalsusa.com", "OWNER": "TOTAL SA", "OPERNAME": "TOTAL PETROCHEMICALS & REFINING USA", "RMP_ID": "1000022056", "EPA_ID": "100000159286", "POSREL": "WITHIN 166 FEET", "CAPACITY": 225500, "US_RANK": 31, "CRUDE": 225500, "VACDIST": 117000, "COKING": 55500, "THERMALOP": 0, "CATCRACK": 75500, "CATREFORM": 40500, "CATHYDCRCK": 0, "CATHYDTRT": 264500, "ALKY": 6700, "POLDIM": 0, "AROMATIC": 13600, "ISOMER": 7800, "LUBES": 0, "OXYGENATES": 0, "HYDRGN": 0, "COKE": 19200, "SULFUR": 806, "ASPHALT": 0 }, "geometry": { "type": "Point", "coordinates": [ -93.88862, 29.96016 ] } },
{ "type": "Feature", "properties": { "OBJECTID": 90, "REF_ID": "REF390096", "NAME": "CANTON", "ADDRESS": "2408 GAMBRINUS AVE SW", "CITY": "CANTON", "STATE": "OH", "ZIP": "44706", "ZIP4": "NOT AVAILABLE", "TELEPHONE": "(330) 478-6379", "TYPE": "SMALL MEDIUM COMPLEXITY REFINERY", "STATUS": "IN SERVICE", "POPULATION": 361, "COUNTY": "STARK", "COUNTYFIPS": "39151", "COUNTRY": "USA", "LATITUDE": 40.77343, "LONGITUDE": -81.41391, "NAICS_CODE": "324110", "NAICS_DESC": "PETROLEUM REFINERIES", "SOURCE": "EIA-820; EPA TRI", "SOURCEDATE": "2017\/01\/01 00:00:00", "VAL_METHOD": "IMAGERY\/OTHER", "VAL_DATE": "2018\/01\/31 00:00:00", "WEBSITE": "https:\/\/www.marathonpetroleum.com", "OWNER": "MARATHON PETROLEUM CORP", "OPERNAME": "MARATHON PETROLEUM CO LP", "RMP_ID": "1000022157", "EPA_ID": "100000058812", "POSREL": "WITHIN 166 FEET", "CAPACITY": 93000, "US_RANK": 69, "CRUDE": 93000, "VACDIST": 35000, "COKING": 0, "THERMALOP": 0, "CATCRACK": 24700, "CATREFORM": 20400, "CATHYDCRCK": 0, "CATHYDTRT": 96000, "ALKY": 7500, "POLDIM": 0, "AROMATIC": 0, "ISOMER": 0, "LUBES": 0, "OXYGENATES": 0, "HYDRGN": 0, "COKE": 0, "SULFUR": 104, "ASPHALT": 14800 }, "geometry": { "type": "Point", "coordinates": [ -81.41391, 40.77343 ] } },
{ "type": "Feature", "properties": { "OBJECTID": 91, "REF_ID": "REF350097", "NAME": "GALLUP", "ADDRESS": "92 GIANT CROSSING ROAD, I-40 AT EXIT 39", "CITY": "JAMESTOWN", "STATE": "NM", "ZIP": "87347", "ZIP4": "NOT AVAILABLE", "TELEPHONE": "(505) 722-3833", "TYPE": "SMALL REFINERY WITH SOME CRACKING CAPABILITY", "STATUS": "IN SERVICE", "POPULATION": 220, "COUNTY": "MCKINLEY", "COUNTYFIPS": "35031", "COUNTRY": "USA", "LATITUDE": 35.48885, "LONGITUDE": -108.42582, "NAICS_CODE": "324110", "NAICS_DESC": "PETROLEUM REFINERIES", "SOURCE": "EIA-820; EPA ENVIROFACTS", "SOURCEDATE": "2020\/06\/18 00:00:00", "VAL_METHOD": "IMAGERY\/OTHER", "VAL_DATE": "2020\/06\/19 00:00:00", "WEBSITE": "https:\/\/www.marathonpetroleum.com", "OWNER": "MARATHON PETROLEUM CORPORATION", "OPERNAME": "MARATHON PETROLEUM CORPORATION", "RMP_ID": "1000022456", "EPA_ID": "100000063487", "POSREL": "WITHIN 166 FEET", "CAPACITY": 25500, "US_RANK": 113, "CRUDE": 25500, "VACDIST": 0, "COKING": 0, "THERMALOP": 0, "CATCRACK": 11300, "CATREFORM": 6800, "CATHYDCRCK": 0, "CATHYDTRT": 12100, "ALKY": 1800, "POLDIM": 0, "AROMATIC": 0, "ISOMER": 0, "LUBES": 0, "OXYGENATES": 0, "HYDRGN": 0, "COKE": 0, "SULFUR": 2, "ASPHALT": 0 }, "geometry": { "type": "Point", "coordinates": [ -108.42582, 35.48885 ] } },
{ "type": "Feature", "properties": { "OBJECTID": 92, "REF_ID": "REF400098", "NAME": "ARDMORE", "ADDRESS": "1 VALERO WAY", "CITY": "ARDMORE", "STATE": "OK", "ZIP": "73401", "ZIP4": "NOT AVAILABLE", "TELEPHONE": "(580) 221-6232", "TYPE": "SMALL MEDIUM COMPLEXITY REFINERY CAPABLE OF PROCESSING A RANGE OF CRUDE OILS", "STATUS": "IN SERVICE", "POPULATION": 320, "COUNTY": "CARTER", "COUNTYFIPS": "40019", "COUNTRY": "USA", "LATITUDE": 34.20492, "LONGITUDE": -97.10442, "NAICS_CODE": "324110", "NAICS_DESC": "PETROLEUM REFINERIES", "SOURCE": "EIA-820; EPA TRI", "SOURCEDATE": "2017\/01\/01 00:00:00", "VAL_METHOD": "IMAGERY\/OTHER", "VAL_DATE": "2018\/01\/31 00:00:00", "WEBSITE": "http:\/\/www.valero.com", "OWNER": "VALERO ENERGY CORP", "OPERNAME": "VALERO REFINING CO OKLAHOMA", "RMP_ID": "1000022598", "EPA_ID": "100000128177", "POSREL": "WITHIN 166 FEET", "CAPACITY": 86000, "US_RANK": 72, "CRUDE": 86000, "VACDIST": 32000, "COKING": 0, "THERMALOP": 0, "CATCRACK": 26000, "CATREFORM": 19000, "CATHYDCRCK": 12000, "CATHYDTRT": 93450, "ALKY": 7012, "POLDIM": 0, "AROMATIC": 0, "ISOMER": 0, "LUBES": 0, "OXYGENATES": 0, "HYDRGN": 27, "COKE": 0, "SULFUR": 249, "ASPHALT": 14714 }, "geometry": { "type": "Point", "coordinates": [ -97.10442, 34.20492 ] } },
{ "type": "Feature", "properties": { "OBJECTID": 93, "REF_ID": "REF480099", "NAME": "PORT ARTHUR", "ADDRESS": "2555 SAVANNAH AVENUE", "CITY": "PORT ARTHUR", "STATE": "TX", "ZIP": "77640", "ZIP4": "3399", "TELEPHONE": "(409) 989-7015", "TYPE": "VERY LARGE COMPLEX REFINERY", "STATUS": "IN SERVICE", "POPULATION": 1050, "COUNTY": "JEFFERSON", "COUNTYFIPS": "48245", "COUNTRY": "USA", "LATITUDE": 29.88301, "LONGITUDE": -93.95994, "NAICS_CODE": "324110", "NAICS_DESC": "PETROLEUM REFINERIES", "SOURCE": "EIA-820; EPA TRI", "SOURCEDATE": "2017\/01\/01 00:00:00", "VAL_METHOD": "IMAGERY\/OTHER", "VAL_DATE": "2018\/01\/31 00:00:00", "WEBSITE": "https:\/\/www.motiva.com\/", "OWNER": "MOTIVA ENTERPRISES LLC", "OPERNAME": "MOTIVA ENTERPRISES LLC", "RMP_ID": "1000022816", "EPA_ID": "100000157297", "POSREL": "WITHIN 166 FEET", "CAPACITY": 603000, "US_RANK": 1, "CRUDE": 603000, "VACDIST": 331800, "COKING": 150000, "THERMALOP": 0, "CATCRACK": 88000, "CATREFORM": 121825, "CATHYDCRCK": 98700, "CATHYDTRT": 537950, "ALKY": 20000, "POLDIM": 0, "AROMATIC": 0, "ISOMER": 49140, "LUBES": 39000, "OXYGENATES": 0, "HYDRGN": 0, "COKE": 48820, "SULFUR": 3203, "ASPHALT": 0 }, "geometry": { "type": "Point", "coordinates": [ -93.95994, 29.88301 ] } },
{ "type": "Feature", "properties": { "OBJECTID": 94, "REF_ID": "REF220100", "NAME": "NORCO", "ADDRESS": "14902 RIVER RD", "CITY": "NORCO", "STATE": "LA", "ZIP": "70047", "ZIP4": "NOT AVAILABLE", "TELEPHONE": "(985) 764-5605", "TYPE": "LARGE COMPLEX REFINERY", "STATUS": "IN SERVICE", "POPULATION": 530, "COUNTY": "ST. CHARLES", "COUNTYFIPS": "22089", "COUNTRY": "USA", "LATITUDE": 29.99255, "LONGITUDE": -90.39446, "NAICS_CODE": "324110", "NAICS_DESC": "PETROLEUM REFINERIES", "SOURCE": "EIA-820; EPA TRI", "SOURCEDATE": "2017\/01\/01 00:00:00", "VAL_METHOD": "IMAGERY\/OTHER", "VAL_DATE": "2018\/01\/31 00:00:00", "WEBSITE": "http:\/\/www.valero.com", "OWNER": "VALERO ENERGY CORP", "OPERNAME": "VALERO REFINING NEW ORLEANS LLC", "RMP_ID": "1000023447", "EPA_ID": "100000093409", "POSREL": "WITHIN 166 FEET", "CAPACITY": 215000, "US_RANK": 33, "CRUDE": 215000, "VACDIST": 180000, "COKING": 72000, "THERMALOP": 0, "CATCRACK": 80000, "CATREFORM": 22000, "CATHYDCRCK": 97000, "CATHYDTRT": 251000, "ALKY": 21000, "POLDIM": 0, "AROMATIC": 3000, "ISOMER": 0, "LUBES": 0, "OXYGENATES": 0, "HYDRGN": 100, "COKE": 26000, "SULFUR": 880, "ASPHALT": 0 }, "geometry": { "type": "Point", "coordinates": [ -90.39446, 29.99255 ] } },
{ "type": "Feature", "properties": { "OBJECTID": 95, "REF_ID": "REF060101", "NAME": "RICHMOND", "ADDRESS": "841 CHEVRON WAY", "CITY": "RICHMOND", "STATE": "CA", "ZIP": "94801", "ZIP4": "0627", "TELEPHONE": "(510) 242-2400", "TYPE": "LARGE AND HIGHLY COMPLEX REFINERY", "STATUS": "IN SERVICE", "POPULATION": 1200, "COUNTY": "CONTRA COSTA", "COUNTYFIPS": "06013", "COUNTRY": "USA", "LATITUDE": 37.94158, "LONGITUDE": -122.39145, "NAICS_CODE": "324110", "NAICS_DESC": "PETROLEUM REFINERIES", "SOURCE": "EIA-820; EPA TRI", "SOURCEDATE": "2017\/01\/01 00:00:00", "VAL_METHOD": "IMAGERY\/OTHER", "VAL_DATE": "2018\/01\/31 00:00:00", "WEBSITE": "https:\/\/www.chevron.com\/", "OWNER": "CHEVRON CORP", "OPERNAME": "CHEVRON USA INC", "RMP_ID": "1000023997", "EPA_ID": "100000136836", "POSREL": "WITHIN 166 FEET", "CAPACITY": 245271, "US_RANK": 24, "CRUDE": 245271, "VACDIST": 123456, "COKING": 0, "THERMALOP": 0, "CATCRACK": 80000, "CATREFORM": 59000, "CATHYDCRCK": 87260, "CATHYDTRT": 382200, "ALKY": 32662, "POLDIM": 0, "AROMATIC": 0, "ISOMER": 60400, "LUBES": 34000, "OXYGENATES": 0, "HYDRGN": 181, "COKE": 0, "SULFUR": 789, "ASPHALT": 0 }, "geometry": { "type": "Point", "coordinates": [ -122.39145, 37.94158 ] } },
{ "type": "Feature", "properties": { "OBJECTID": 96, "REF_ID": "REF480102", "NAME": "DEER PARK", "ADDRESS": "5900 STATE HIGHWAY 225 EAST", "CITY": "DEER PARK", "STATE": "TX", "ZIP": "77536", "ZIP4": "NOT AVAILABLE", "TELEPHONE": "(713) 246-6151", "TYPE": "VERY LARGE COMPLEX REFINERY", "STATUS": "IN SERVICE", "POPULATION": 1519, "COUNTY": "HARRIS", "COUNTYFIPS": "48201", "COUNTRY": "USA", "LATITUDE": 29.72153, "LONGITUDE": -95.12778, "NAICS_CODE": "324110", "NAICS_DESC": "PETROLEUM REFINERIES", "SOURCE": "EIA-820; EPA TRI", "SOURCEDATE": "2017\/01\/01 00:00:00", "VAL_METHOD": "IMAGERY\/OTHER", "VAL_DATE": "2018\/01\/31 00:00:00", "WEBSITE": "http:\/\/www.shell.us", "OWNER": "DEER PARK REFINING LTD PTNRSHP", "OPERNAME": "DEER PARK REFINING LTD PARTNERSHIP", "RMP_ID": "1000024956", "EPA_ID": "100000131653", "POSREL": "WITHIN 166 FEET", "CAPACITY": 325700, "US_RANK": 12, "CRUDE": 325700, "VACDIST": 180000, "COKING": 79500, "THERMALOP": 0, "CATCRACK": 67900, "CATREFORM": 61600, "CATHYDCRCK": 52300, "CATHYDTRT": 296000, "ALKY": 18500, "POLDIM": 0, "AROMATIC": 0, "ISOMER": 0, "LUBES": 0, "OXYGENATES": 0, "HYDRGN": 0, "COKE": 34000, "SULFUR": 1085, "ASPHALT": 0 }, "geometry": { "type": "Point", "coordinates": [ -95.12778, 29.72153 ] } },
{ "type": "Feature", "properties": { "OBJECTID": 97, "REF_ID": "REF060103", "NAME": "LOS ANGELES (CARSON PLANT)", "ADDRESS": "1801 E SEPULVEDA BLVD", "CITY": "CARSON", "STATE": "CA", "ZIP": "90745", "ZIP4": "NOT AVAILABLE", "TELEPHONE": "(310) 847-5211", "TYPE": "LARGE AND VERY COMPLEX REFINERY", "STATUS": "IN SERVICE", "POPULATION": 1021, "COUNTY": "LOS ANGELES", "COUNTYFIPS": "06037", "COUNTRY": "USA", "LATITUDE": 33.81535, "LONGITUDE": -118.24102, "NAICS_CODE": "324110", "NAICS_DESC": "PETROLEUM REFINERIES", "SOURCE": "EIA-820; EPA TRI", "SOURCEDATE": "2020\/06\/18 00:00:00", "VAL_METHOD": "IMAGERY\/OTHER", "VAL_DATE": "2020\/06\/19 00:00:00", "WEBSITE": "https:\/\/www.marathonpetroleum.com", "OWNER": "MARATHON PETROLEUM CORP", "OPERNAME": "MARATHON PETROLEUM CO LP", "RMP_ID": "1000025262", "EPA_ID": "100000073476", "POSREL": "WITHIN 166 FEET", "CAPACITY": 269200, "US_RANK": 18, "CRUDE": 269200, "VACDIST": 140000, "COKING": 49300, "THERMALOP": 0, "CATCRACK": 92600, "CATREFORM": 36900, "CATHYDCRCK": 53900, "CATHYDTRT": 209000, "ALKY": 17000, "POLDIM": 0, "AROMATIC": 0, "ISOMER": 30000, "LUBES": 0, "OXYGENATES": 0, "HYDRGN": 105, "COKE": 16700, "SULFUR": 476, "ASPHALT": 0 }, "geometry": { "type": "Point", "coordinates": [ -118.24102, 33.81535 ] } },
{ "type": "Feature", "properties": { "OBJECTID": 98, "REF_ID": "REF220104", "NAME": "SHREVEPORT", "ADDRESS": "3333 MIDWAY ST", "CITY": "SHREVEPORT", "STATE": "LA", "ZIP": "71109", "ZIP4": "5719", "TELEPHONE": "(318) 632-4102", "TYPE": "SPECIALISED PREMIUM BASE AND PROCESS OILS MANUFACTURING REFINERY", "STATUS": "IN SERVICE", "POPULATION": 240, "COUNTY": "CADDO", "COUNTYFIPS": "22017", "COUNTRY": "USA", "LATITUDE": 32.46693, "LONGITUDE": -93.79254, "NAICS_CODE": "324110", "NAICS_DESC": "PETROLEUM REFINERIES", "SOURCE": "EIA-820; EPA TRI", "SOURCEDATE": "2017\/01\/01 00:00:00", "VAL_METHOD": "IMAGERY\/OTHER", "VAL_DATE": "2018\/01\/31 00:00:00", "WEBSITE": "http:\/\/www.calumetspecialty.com", "OWNER": "CALUMET SPECIALTY PRODUCTS PARTNERS, L.P.", "OPERNAME": "CALUMET SHREVEPORT LLC", "RMP_ID": "1000025597", "EPA_ID": "100000041153", "POSREL": "WITHIN 166 FEET", "CAPACITY": 57000, "US_RANK": 95, "CRUDE": 57000, "VACDIST": 28000, "COKING": 0, "THERMALOP": 0, "CATCRACK": 0, "CATREFORM": 11900, "CATHYDCRCK": 0, "CATHYDTRT": 52300, "ALKY": 0, "POLDIM": 0, "AROMATIC": 0, "ISOMER": 0, "LUBES": 12500, "OXYGENATES": 0, "HYDRGN": 12, "COKE": 0, "SULFUR": 40, "ASPHALT": 6500 }, "geometry": { "type": "Point", "coordinates": [ -93.79254, 32.46693 ] } },
{ "type": "Feature", "properties": { "OBJECTID": 99, "REF_ID": "REF480105", "NAME": "CHANNELVIEW", "ADDRESS": "8280 SHELDON ROAD", "CITY": "CHANNELVIEW", "STATE": "TX", "ZIP": "77049", "ZIP4": "NOT AVAILABLE", "TELEPHONE": "(713) 309-7894", "TYPE": "ALKYLATION UNIT", "STATUS": "IN SERVICE", "POPULATION": 558, "COUNTY": "HARRIS", "COUNTYFIPS": "48201", "COUNTRY": "USA", "LATITUDE": 29.83178, "LONGITUDE": -95.11971, "NAICS_CODE": "324110", "NAICS_DESC": "PETROLEUM REFINERIES", "SOURCE": "EIA-820; EPA ENVIROFACTS", "SOURCEDATE": "2017\/01\/01 00:00:00", "VAL_METHOD": "IMAGERY\/OTHER", "VAL_DATE": "2018\/01\/31 00:00:00", "WEBSITE": "http:\/\/www.lyondellbasell.com", "OWNER": "ACCESS INDUSTRIES", "OPERNAME": "EQUISTAR CHEMICALS LP", "RMP_ID": "1000027421", "EPA_ID": "100000146736", "POSREL": "WITHIN 166 FEET", "CAPACITY": 0, "US_RANK": 141, "CRUDE": 0, "VACDIST": 0, "COKING": 0, "THERMALOP": 0, "CATCRACK": 0, "CATREFORM": 0, "CATHYDCRCK": 0, "CATHYDTRT": 0, "ALKY": 22000, "POLDIM": 0, "AROMATIC": 0, "ISOMER": 0, "LUBES": 0, "OXYGENATES": 0, "HYDRGN": 0, "COKE": 0, "SULFUR": 0, "ASPHALT": 0 }, "geometry": { "type": "Point", "coordinates": [ -95.11971, 29.83178 ] } },
{ "type": "Feature", "properties": { "OBJECTID": 100, "REF_ID": "REF550106", "NAME": "SUPERIOR", "ADDRESS": "2407 STINSON AVENUE", "CITY": "SUPERIOR", "STATE": "WI", "ZIP": "54880", "ZIP4": "NOT AVAILABLE", "TELEPHONE": "(715) 398-8453", "TYPE": "SMALL TO MEDIUM LUBRICANTS REFINERY", "STATUS": "IN SERVICE", "POPULATION": 155, "COUNTY": "DOUGLAS", "COUNTYFIPS": "55031", "COUNTRY": "USA", "LATITUDE": 46.69135, "LONGITUDE": -92.07186, "NAICS_CODE": "324110", "NAICS_DESC": "PETROLEUM REFINERIES", "SOURCE": "EIA-820; EPA TRI", "SOURCEDATE": "2017\/01\/01 00:00:00", "VAL_METHOD": "IMAGERY\/OTHER", "VAL_DATE": "2018\/01\/31 00:00:00", "WEBSITE": "http:\/\/www.calumetspecialty.com", "OWNER": "HUSKY ENERGY INC", "OPERNAME": "CALUMET LUBRICANTS CO LP", "RMP_ID": "1000027439", "EPA_ID": "100000141401", "POSREL": "WITHIN 166 FEET", "CAPACITY": 38000, "US_RANK": 105, "CRUDE": 38000, "VACDIST": 20500, "COKING": 0, "THERMALOP": 0, "CATCRACK": 10780, "CATREFORM": 7800, "CATHYDCRCK": 0, "CATHYDTRT": 32700, "ALKY": 1600, "POLDIM": 0, "AROMATIC": 6000, "ISOMER": 0, "LUBES": 0, "OXYGENATES": 0, "HYDRGN": 0, "COKE": 0, "SULFUR": 34, "ASPHALT": 7900 }, "geometry": { "type": "Point", "coordinates": [ -92.07186, 46.69135 ] } },
{ "type": "Feature", "properties": { "OBJECTID": 101, "REF_ID": "REF080107", "NAME": "COMMERCE CITY WEST", "ADDRESS": "5801 BRIGHTON BLVD", "CITY": "COMMERCE CITY", "STATE": "CO", "ZIP": "80022", "ZIP4": "NOT AVAILABLE", "TELEPHONE": "(303) 286-5788", "TYPE": "MEDIUM COMPLEX REFINERY", "STATUS": "IN SERVICE", "POPULATION": 125, "COUNTY": "ADAMS", "COUNTYFIPS": "08001", "COUNTRY": "USA", "LATITUDE": 39.80365, "LONGITUDE": -104.94767, "NAICS_CODE": "324110", "NAICS_DESC": "PETROLEUM REFINERIES", "SOURCE": "EIA-820; EPA TRI", "SOURCEDATE": "2017\/01\/01 00:00:00", "VAL_METHOD": "IMAGERY\/OTHER", "VAL_DATE": "2018\/01\/31 00:00:00", "WEBSITE": "http:\/\/www.suncor.com", "OWNER": "SUNCOR ENERGY INC", "OPERNAME": "SUNCOR ENERGY (USA) INC", "RMP_ID": "1000027666", "EPA_ID": "100000051971", "POSREL": "WITHIN 166 FEET", "CAPACITY": 67000, "US_RANK": 89, "CRUDE": 67000, "VACDIST": 25000, "COKING": 0, "THERMALOP": 0, "CATCRACK": 20000, "CATREFORM": 10000, "CATHYDCRCK": 0, "CATHYDTRT": 74000, "ALKY": 0, "POLDIM": 0, "AROMATIC": 0, "ISOMER": 0, "LUBES": 0, "OXYGENATES": 0, "HYDRGN": 22, "COKE": 0, "SULFUR": 114, "ASPHALT": 12250 }, "geometry": { "type": "Point", "coordinates": [ -104.94767, 39.80365 ] } },
{ "type": "Feature", "properties": { "OBJECTID": 102, "REF_ID": "REF170108", "NAME": "ROBINSON", "ADDRESS": "400 S MARATHON AVE", "CITY": "ROBINSON", "STATE": "IL", "ZIP": "62454", "ZIP4": "NOT AVAILABLE", "TELEPHONE": "(618) 544-2121", "TYPE": "LARGE VERY COMPLEX REFINERY", "STATUS": "IN SERVICE", "POPULATION": 690, "COUNTY": "CRAWFORD", "COUNTYFIPS": "17033", "COUNTRY": "USA", "LATITUDE": 38.99813, "LONGITUDE": -87.71792, "NAICS_CODE": "324110", "NAICS_DESC": "PETROLEUM REFINERIES", "SOURCE": "EIA-820; EPA TRI", "SOURCEDATE": "2020\/06\/18 00:00:00", "VAL_METHOD": "IMAGERY\/OTHER", "VAL_DATE": "2020\/06\/19 00:00:00", "WEBSITE": "https:\/\/www.marathonpetroleum.com", "OWNER": "MARATHON PETROLEUM CORP", "OPERNAME": "MARATHON PETROLEUM CO LP", "RMP_ID": "1000027696", "EPA_ID": "100000132509", "POSREL": "WITHIN 166 FEET", "CAPACITY": 231000, "US_RANK": 27, "CRUDE": 231000, "VACDIST": 71500, "COKING": 28500, "THERMALOP": 0, "CATCRACK": 51800, "CATREFORM": 76500, "CATHYDCRCK": 39400, "CATHYDTRT": 189000, "ALKY": 13000, "POLDIM": 0, "AROMATIC": 3300, "ISOMER": 16000, "LUBES": 0, "OXYGENATES": 0, "HYDRGN": 0, "COKE": 7500, "SULFUR": 202, "ASPHALT": 0 }, "geometry": { "type": "Point", "coordinates": [ -87.71792, 38.99813 ] } },
{ "type": "Feature", "properties": { "OBJECTID": 103, "REF_ID": "REF200109", "NAME": "MCPHERSON", "ADDRESS": "2000 S. MAIN ST", "CITY": "MCPHERSON", "STATE": "KS", "ZIP": "67460", "ZIP4": "1404", "TELEPHONE": "(620) 241-2340", "TYPE": "SMALL COMPLEX REFINERY", "STATUS": "IN SERVICE", "POPULATION": 465, "COUNTY": "MCPHERSON", "COUNTYFIPS": "20113", "COUNTRY": "USA", "LATITUDE": 38.34404, "LONGITUDE": -97.67337, "NAICS_CODE": "324110", "NAICS_DESC": "PETROLEUM REFINERIES", "SOURCE": "EIA-820; EPA TRI", "SOURCEDATE": "2017\/01\/01 00:00:00", "VAL_METHOD": "IMAGERY\/OTHER", "VAL_DATE": "2018\/01\/31 00:00:00", "WEBSITE": "http:\/\/www.ncra.coop", "OWNER": "CHS INC", "OPERNAME": "CHS MCPHERSON REFINERY INC", "RMP_ID": "1000028118", "EPA_ID": "100000118428", "POSREL": "WITHIN 166 FEET", "CAPACITY": 96000, "US_RANK": 66, "CRUDE": 96000, "VACDIST": 38000, "COKING": 23600, "THERMALOP": 0, "CATCRACK": 23200, "CATREFORM": 22700, "CATHYDCRCK": 36400, "CATHYDTRT": 81200, "ALKY": 9500, "POLDIM": 0, "AROMATIC": 0, "ISOMER": 19600, "LUBES": 0, "OXYGENATES": 0, "HYDRGN": 42, "COKE": 7364, "SULFUR": 280, "ASPHALT": 0 }, "geometry": { "type": "Point", "coordinates": [ -97.67337, 38.34404 ] } },
{ "type": "Feature", "properties": { "OBJECTID": 104, "REF_ID": "REF060110", "NAME": "MARTINEZ", "ADDRESS": "150 SOLANO WAY", "CITY": "MARTINEZ", "STATE": "CA", "ZIP": "94553", "ZIP4": "1487", "TELEPHONE": "(925) 372-3093", "TYPE": "VERY COMPLEX REFINERY", "STATUS": "IN SERVICE", "POPULATION": 740, "COUNTY": "CONTRA COSTA", "COUNTYFIPS": "06013", "COUNTRY": "USA", "LATITUDE": 38.0251, "LONGITUDE": -122.0639, "NAICS_CODE": "324110", "NAICS_DESC": "PETROLEUM REFINERIES", "SOURCE": "EIA-820; EPA TRI", "SOURCEDATE": "2020\/06\/18 00:00:00", "VAL_METHOD": "IMAGERY\/OTHER", "VAL_DATE": "2020\/06\/18 00:00:00", "WEBSITE": "https:\/\/www.marathonpetroleum.com", "OWNER": "MARATHON PETROLEUM CORP", "OPERNAME": "MARATHON PETROLEUM CO LP", "RMP_ID": "1000028601", "EPA_ID": "100000145194", "POSREL": "WITHIN 166 FEET", "CAPACITY": 166000, "US_RANK": 43, "CRUDE": 166000, "VACDIST": 156900, "COKING": 50000, "THERMALOP": 0, "CATCRACK": 71000, "CATREFORM": 23900, "CATHYDCRCK": 35900, "CATHYDTRT": 199000, "ALKY": 15400, "POLDIM": 0, "AROMATIC": 0, "ISOMER": 0, "LUBES": 0, "OXYGENATES": 0, "HYDRGN": 82, "COKE": 15000, "SULFUR": 200, "ASPHALT": 0 }, "geometry": { "type": "Point", "coordinates": [ -122.0639, 38.0251 ] } },
{ "type": "Feature", "properties": { "OBJECTID": 105, "REF_ID": "REF480111", "NAME": "BIG SPRING", "ADDRESS": "INTERSECTION OF IH 20 AND REFINERY ROAD", "CITY": "BIG SPRING", "STATE": "TX", "ZIP": "79720", "ZIP4": "NOT AVAILABLE", "TELEPHONE": "(432) 263-9354", "TYPE": "SMALL MEDIUM COMPLEXITY REFINERY", "STATUS": "IN SERVICE", "POPULATION": 191, "COUNTY": "HOWARD", "COUNTYFIPS": "48227", "COUNTRY": "USA", "LATITUDE": 32.27045, "LONGITUDE": -101.41632, "NAICS_CODE": "324110", "NAICS_DESC": "PETROLEUM REFINERIES", "SOURCE": "EIA-820; EPA TRI", "SOURCEDATE": "2017\/01\/01 00:00:00", "VAL_METHOD": "IMAGERY\/OTHER", "VAL_DATE": "2018\/01\/31 00:00:00", "WEBSITE": "http:\/\/www.alonusa.com", "OWNER": "ALON ISRAEL OIL COMPANY LTD", "OPERNAME": "ALON USA ENERGY INC", "RMP_ID": "1000028824", "EPA_ID": "100000112781", "POSREL": "WITHIN 166 FEET", "CAPACITY": 73000, "US_RANK": 84, "CRUDE": 73000, "VACDIST": 24000, "COKING": 0, "THERMALOP": 0, "CATCRACK": 23000, "CATREFORM": 20500, "CATHYDCRCK": 0, "CATHYDTRT": 60000, "ALKY": 5000, "POLDIM": 0, "AROMATIC": 1000, "ISOMER": 0, "LUBES": 0, "OXYGENATES": 0, "HYDRGN": 0, "COKE": 0, "SULFUR": 150, "ASPHALT": 7600 }, "geometry": { "type": "Point", "coordinates": [ -101.41632, 32.27045 ] } },
{ "type": "Feature", "properties": { "OBJECTID": 106, "REF_ID": "REF200112", "NAME": "EL DORADO", "ADDRESS": "1401 S DOUGLAS ROAD", "CITY": "EL DORADO", "STATE": "KS", "ZIP": "67042", "ZIP4": "3698", "TELEPHONE": "(316) 321-8263", "TYPE": "MEDIUM SIZED COMPLEX REFINERY", "STATUS": "IN SERVICE", "POPULATION": 442, "COUNTY": "BUTLER", "COUNTYFIPS": "20015", "COUNTRY": "USA", "LATITUDE": 37.79594, "LONGITUDE": -96.87283, "NAICS_CODE": "324110", "NAICS_DESC": "PETROLEUM REFINERIES", "SOURCE": "EIA-820; EPA TRI", "SOURCEDATE": "2017\/01\/01 00:00:00", "VAL_METHOD": "IMAGERY\/OTHER", "VAL_DATE": "2018\/01\/31 00:00:00", "WEBSITE": "http:\/\/www.hollyfrontier.com", "OWNER": "HOLLYFRONTIER CORP", "OPERNAME": "HOLLYFRONTIER EL DORADO REFINING LLC", "RMP_ID": "1000029027", "EPA_ID": "100000106164", "POSREL": "WITHIN 166 FEET", "CAPACITY": 150000, "US_RANK": 50, "CRUDE": 150000, "VACDIST": 64000, "COKING": 18500, "THERMALOP": 0, "CATCRACK": 42000, "CATREFORM": 30000, "CATHYDCRCK": 0, "CATHYDTRT": 189500, "ALKY": 14000, "POLDIM": 0, "AROMATIC": 0, "ISOMER": 18000, "LUBES": 0, "OXYGENATES": 0, "HYDRGN": 56, "COKE": 7000, "SULFUR": 315, "ASPHALT": 4000 }, "geometry": { "type": "Point", "coordinates": [ -96.87283, 37.79594 ] } },
{ "type": "Feature", "properties": { "OBJECTID": 107, "REF_ID": "REF380113", "NAME": "MANDAN", "ADDRESS": "900 OLD RED TRAIL NE", "CITY": "MANDAN", "STATE": "ND", "ZIP": "58554", "ZIP4": "NOT AVAILABLE", "TELEPHONE": "(701) 667-2405", "TYPE": "SMALL MEDIUM COMPLEXITY REFINERY THAT PROCESSES LIGHT SWEET CRUDE OIL", "STATUS": "IN SERVICE", "POPULATION": 290, "COUNTY": "MORTON", "COUNTYFIPS": "38059", "COUNTRY": "USA", "LATITUDE": 46.85078, "LONGITUDE": -100.88122, "NAICS_CODE": "324110", "NAICS_DESC": "PETROLEUM REFINERIES", "SOURCE": "EIA-820; EPA TRI", "SOURCEDATE": "2020\/06\/18 00:00:00", "VAL_METHOD": "IMAGERY\/OTHER", "VAL_DATE": "2020\/06\/19 00:00:00", "WEBSITE": "https:\/\/www.marathonpetroleum.com", "OWNER": "MARATHON PETROLEUM CORP", "OPERNAME": "MARATHON PETROLEUM CO LP", "RMP_ID": "1000029038", "EPA_ID": "100000125296", "POSREL": "WITHIN 166 FEET", "CAPACITY": 74000, "US_RANK": 83, "CRUDE": 73800, "VACDIST": 0, "COKING": 0, "THERMALOP": 0, "CATCRACK": 28960, "CATREFORM": 11900, "CATHYDCRCK": 0, "CATHYDTRT": 44060, "ALKY": 4830, "POLDIM": 0, "AROMATIC": 0, "ISOMER": 0, "LUBES": 0, "OXYGENATES": 0, "HYDRGN": 0, "COKE": 0, "SULFUR": 17, "ASPHALT": 0 }, "geometry": { "type": "Point", "coordinates": [ -100.88122, 46.85078 ] } },
{ "type": "Feature", "properties": { "OBJECTID": 108, "REF_ID": "REF060114", "NAME": "BAKERSFIELD", "ADDRESS": "6451 ROSEDALE HIGHWAY", "CITY": "BAKERSFIELD", "STATE": "CA", "ZIP": "93308", "ZIP4": "NOT AVAILABLE", "TELEPHONE": "(661) 326-4422", "TYPE": "MEDIUM SIZED FUELS REFINERY", "STATUS": "IN SERVICE", "POPULATION": 94, "COUNTY": "KERN", "COUNTYFIPS": "06029", "COUNTRY": "USA", "LATITUDE": 35.3795, "LONGITUDE": -119.07206, "NAICS_CODE": "324110", "NAICS_DESC": "PETROLEUM REFINERIES", "SOURCE": "EIA-820; EPA RMP", "SOURCEDATE": "2017\/01\/01 00:00:00", "VAL_METHOD": "IMAGERY\/OTHER", "VAL_DATE": "2018\/01\/31 00:00:00", "WEBSITE": "http:\/\/bakersfieldrefinery.com", "OWNER": "ALON ISRAEL OIL COMPANY LTD", "OPERNAME": "ALON BAKERSFIELD OPERATING INC", "RMP_ID": "1000029137", "EPA_ID": "100000147815", "POSREL": "WITHIN 166 FEET", "CAPACITY": 0, "US_RANK": 138, "CRUDE": 0, "VACDIST": 0, "COKING": 0, "THERMALOP": 0, "CATCRACK": 0, "CATREFORM": 7600, "CATHYDCRCK": 14250, "CATHYDTRT": 29000, "ALKY": 0, "POLDIM": 0, "AROMATIC": 0, "ISOMER": 1300, "LUBES": 0, "OXYGENATES": 0, "HYDRGN": 23, "COKE": 0, "SULFUR": 70, "ASPHALT": 0 }, "geometry": { "type": "Point", "coordinates": [ -119.07206, 35.3795 ] } },
{ "type": "Feature", "properties": { "OBJECTID": 109, "REF_ID": "REF210115", "NAME": "CATLETTSBURG", "ADDRESS": "11631 US RTE 23", "CITY": "CATLETTSBURG", "STATE": "KY", "ZIP": "41129", "ZIP4": "NOT AVAILABLE", "TELEPHONE": "(606) 921-6504", "TYPE": "LARGE MEDIUM COMPLEXITY REFINERY", "STATUS": "IN SERVICE", "POPULATION": 740, "COUNTY": "BOYD", "COUNTYFIPS": "21019", "COUNTRY": "USA", "LATITUDE": 38.37587, "LONGITUDE": -82.59843, "NAICS_CODE": "324110", "NAICS_DESC": "PETROLEUM REFINERIES", "SOURCE": "EIA-820; EPA TRI", "SOURCEDATE": "2017\/01\/01 00:00:00", "VAL_METHOD": "IMAGERY\/OTHER", "VAL_DATE": "2018\/01\/31 00:00:00", "WEBSITE": "https:\/\/www.marathonpetroleum.com", "OWNER": "MARATHON PETROLEUM CORP", "OPERNAME": "MARATHON PETROLEUM CO LP", "RMP_ID": "1000029541", "EPA_ID": "100000084375", "POSREL": "WITHIN 166 FEET", "CAPACITY": 273000, "US_RANK": 17, "CRUDE": 273000, "VACDIST": 130000, "COKING": 0, "THERMALOP": 0, "CATCRACK": 98800, "CATREFORM": 51300, "CATHYDCRCK": 0, "CATHYDTRT": 271000, "ALKY": 21000, "POLDIM": 0, "AROMATIC": 3200, "ISOMER": 17000, "LUBES": 0, "OXYGENATES": 0, "HYDRGN": 0, "COKE": 0, "SULFUR": 448, "ASPHALT": 35400 }, "geometry": { "type": "Point", "coordinates": [ -82.59843, 38.37587 ] } },
{ "type": "Feature", "properties": { "OBJECTID": 110, "REF_ID": "REF170116", "NAME": "WOOD RIVER", "ADDRESS": "900 S CENTRAL AVENUE", "CITY": "ROXANA", "STATE": "IL", "ZIP": "62084", "ZIP4": "NOT AVAILABLE", "TELEPHONE": "(618) 255-3001", "TYPE": "VERY LARGE COMPLEX REFINERY", "STATUS": "IN SERVICE", "POPULATION": 840, "COUNTY": "MADISON", "COUNTYFIPS": "17119", "COUNTRY": "USA", "LATITUDE": 38.83827, "LONGITUDE": -90.07398, "NAICS_CODE": "324110", "NAICS_DESC": "PETROLEUM REFINERIES", "SOURCE": "EIA-820; EPA TRI", "SOURCEDATE": "2017\/01\/01 00:00:00", "VAL_METHOD": "IMAGERY\/OTHER", "VAL_DATE": "2018\/01\/31 00:00:00", "WEBSITE": "http:\/\/www.phillips66.com", "OWNER": "WRB REFINING LP (PHILLIPS66\/CENOVUS)", "OPERNAME": "PHILLIPS 66 COMPANY", "RMP_ID": "1000029800", "EPA_ID": "100000075884", "POSREL": "WITHIN 166 FEET", "CAPACITY": 336000, "US_RANK": 10, "CRUDE": 314000, "VACDIST": 196500, "COKING": 75000, "THERMALOP": 0, "CATCRACK": 91000, "CATREFORM": 72000, "CATHYDCRCK": 49000, "CATHYDTRT": 267850, "ALKY": 21800, "POLDIM": 0, "AROMATIC": 4500, "ISOMER": 0, "LUBES": 0, "OXYGENATES": 0, "HYDRGN": 190, "COKE": 27900, "SULFUR": 1008, "ASPHALT": 23000 }, "geometry": { "type": "Point", "coordinates": [ -90.07398, 38.83827 ] } },
{ "type": "Feature", "properties": { "OBJECTID": 111, "REF_ID": "REF180117", "NAME": "WHITING", "ADDRESS": "2815 INDIANAPOLIS BLVD", "CITY": "WHITING", "STATE": "IN", "ZIP": "46394", "ZIP4": "NOT AVAILABLE", "TELEPHONE": "(219) 473-3112", "TYPE": "VERY LARGE COMPLEX REFINERY", "STATUS": "IN SERVICE", "POPULATION": 1849, "COUNTY": "LAKE", "COUNTYFIPS": "18089", "COUNTRY": "USA", "LATITUDE": 41.66251, "LONGITUDE": -87.48195, "NAICS_CODE": "324110", "NAICS_DESC": "PETROLEUM REFINERIES", "SOURCE": "EIA-820; EPA TRI", "SOURCEDATE": "2017\/01\/01 00:00:00", "VAL_METHOD": "IMAGERY\/OTHER", "VAL_DATE": "2018\/01\/31 00:00:00", "WEBSITE": "https:\/\/www.bp.com", "OWNER": "BP PLC", "OPERNAME": "BP PRODUCTS NORTH AMERICA INC", "RMP_ID": "1000030079", "EPA_ID": "100000101105", "POSREL": "WITHIN 166 FEET", "CAPACITY": 413500, "US_RANK": 7, "CRUDE": 413500, "VACDIST": 263900, "COKING": 87400, "THERMALOP": 0, "CATCRACK": 168900, "CATREFORM": 62000, "CATHYDCRCK": 0, "CATHYDTRT": 439800, "ALKY": 31000, "POLDIM": 0, "AROMATIC": 16800, "ISOMER": 26400, "LUBES": 0, "OXYGENATES": 0, "HYDRGN": 0, "COKE": 30000, "SULFUR": 1904, "ASPHALT": 30000 }, "geometry": { "type": "Point", "coordinates": [ -87.48195, 41.66251 ] } },
{ "type": "Feature", "properties": { "OBJECTID": 113, "REF_ID": "REF260119", "NAME": "DETROIT", "ADDRESS": "1300 SOUTH FORT STREET", "CITY": "DETROIT", "STATE": "MI", "ZIP": "48217", "ZIP4": "NOT AVAILABLE", "TELEPHONE": "(313) 551-7902", "TYPE": "MEDIUM SIZED MEDIUM COMPLEXITY REFINERY", "STATUS": "IN SERVICE", "POPULATION": 535, "COUNTY": "WAYNE", "COUNTYFIPS": "26163", "COUNTRY": "USA", "LATITUDE": 42.28189, "LONGITUDE": -83.15623, "NAICS_CODE": "324110", "NAICS_DESC": "PETROLEUM REFINERIES", "SOURCE": "EIA-820; EPA TRI", "SOURCEDATE": "2017\/01\/01 00:00:00", "VAL_METHOD": "IMAGERY\/OTHER", "VAL_DATE": "2018\/01\/31 00:00:00", "WEBSITE": "https:\/\/www.marathonpetroleum.com", "OWNER": "MARATHON PETROLEUM CORP", "OPERNAME": "MARATHON PETROLEUM CO LP", "RMP_ID": "1000030782", "EPA_ID": "100000110319", "POSREL": "WITHIN 166 FEET", "CAPACITY": 132000, "US_RANK": 55, "CRUDE": 132000, "VACDIST": 77900, "COKING": 31800, "THERMALOP": 0, "CATCRACK": 38000, "CATREFORM": 20400, "CATHYDCRCK": 0, "CATHYDTRT": 130500, "ALKY": 7000, "POLDIM": 0, "AROMATIC": 0, "ISOMER": 0, "LUBES": 0, "OXYGENATES": 0, "HYDRGN": 0, "COKE": 11800, "SULFUR": 459, "ASPHALT": 24000 }, "geometry": { "type": "Point", "coordinates": [ -83.15623, 42.28189 ] } },
{ "type": "Feature", "properties": { "OBJECTID": 114, "REF_ID": "REF470120", "NAME": "MEMPHIS", "ADDRESS": "543 WEST MALLORY AVE", "CITY": "MEMPHIS", "STATE": "TN", "ZIP": "38106", "ZIP4": "NOT AVAILABLE", "TELEPHONE": "(901) 947-8360", "TYPE": "LARGE MEDIUM COMPLEXITY REFINERY THAT PROCESSES LIGHT SWEET CRUDE", "STATUS": "IN SERVICE", "POPULATION": 306, "COUNTY": "SHELBY", "COUNTYFIPS": "47157", "COUNTRY": "USA", "LATITUDE": 35.08508, "LONGITUDE": -90.08235, "NAICS_CODE": "324110", "NAICS_DESC": "PETROLEUM REFINERIES", "SOURCE": "EIA-820; EPA TRI", "SOURCEDATE": "2017\/01\/01 00:00:00", "VAL_METHOD": "IMAGERY\/OTHER", "VAL_DATE": "2018\/01\/31 00:00:00", "WEBSITE": "http:\/\/www.valero.com", "OWNER": "VALERO ENERGY CORP", "OPERNAME": "PREMCOR REFINING GROUP INC", "RMP_ID": "1000030830", "EPA_ID": "100000158107", "POSREL": "WITHIN 166 FEET", "CAPACITY": 190000, "US_RANK": 39, "CRUDE": 190000, "VACDIST": 0, "COKING": 0, "THERMALOP": 0, "CATCRACK": 68000, "CATREFORM": 35300, "CATHYDCRCK": 26000, "CATHYDTRT": 129000, "ALKY": 12700, "POLDIM": 0, "AROMATIC": 29000, "ISOMER": 0, "LUBES": 0, "OXYGENATES": 0, "HYDRGN": 30, "COKE": 0, "SULFUR": 116, "ASPHALT": 0 }, "geometry": { "type": "Point", "coordinates": [ -90.08235, 35.08508 ] } },
{ "type": "Feature", "properties": { "OBJECTID": 115, "REF_ID": "REF220121", "NAME": "CONVENT", "ADDRESS": "0.7 MILES NORTHEAST OF INTERSECTION OF HWY 70 AND HWY 44", "CITY": "CONVENT", "STATE": "LA", "ZIP": "70723", "ZIP4": "NOT AVAILABLE", "TELEPHONE": "(225) 562-6272", "TYPE": "LARGE COMPLEX REFINERY", "STATUS": "IN SERVICE", "POPULATION": 590, "COUNTY": "ST. JAMES", "COUNTYFIPS": "22093", "COUNTRY": "USA", "LATITUDE": 30.11148, "LONGITUDE": -90.89591, "NAICS_CODE": "324110", "NAICS_DESC": "PETROLEUM REFINERIES", "SOURCE": "EIA-820; EPA TRI", "SOURCEDATE": "2020\/06\/19 00:00:00", "VAL_METHOD": "IMAGERY\/OTHER", "VAL_DATE": "2020\/06\/19 00:00:00", "WEBSITE": "https:\/\/www.shell.us", "OWNER": "ROYAL DUTCH SHELL", "OPERNAME": "SHELL OIL PRODUCTS US (REFINING)", "RMP_ID": "1000031463", "EPA_ID": "100000002230", "POSREL": "WITHIN 166 FEET", "CAPACITY": 227586, "US_RANK": 28, "CRUDE": 227586, "VACDIST": 116300, "COKING": 0, "THERMALOP": 0, "CATCRACK": 33945, "CATREFORM": 38071, "CATHYDCRCK": 41107, "CATHYDTRT": 254300, "ALKY": 16700, "POLDIM": 0, "AROMATIC": 0, "ISOMER": 16000, "LUBES": 0, "OXYGENATES": 0, "HYDRGN": 0, "COKE": 0, "SULFUR": 728, "ASPHALT": 0 }, "geometry": { "type": "Point", "coordinates": [ -90.89591, 30.11148 ] } },
{ "type": "Feature", "properties": { "OBJECTID": 116, "REF_ID": "REF200122", "NAME": "COFFEYVILLE", "ADDRESS": "400 N LINDEN STREET", "CITY": "COFFEYVILLE", "STATE": "KS", "ZIP": "67337", "ZIP4": "NOT AVAILABLE", "TELEPHONE": "(620) 251-4000", "TYPE": "MEDIUM SIZED COMPLEX REFINERY", "STATUS": "IN SERVICE", "POPULATION": 369, "COUNTY": "MONTGOMERY", "COUNTYFIPS": "20125", "COUNTRY": "USA", "LATITUDE": 37.050829192000037, "LONGITUDE": -95.605678459999979, "NAICS_CODE": "324110", "NAICS_DESC": "PETROLEUM REFINERIES", "SOURCE": "EIA-820; EPA TRI", "SOURCEDATE": "2017\/01\/01 00:00:00", "VAL_METHOD": "IMAGERY\/OTHER", "VAL_DATE": "2018\/01\/31 00:00:00", "WEBSITE": "http:\/\/www.cvrrefining.com", "OWNER": "CVR ENERGY", "OPERNAME": "COFFEYVILLE RESOURCES RFG & MKTG", "RMP_ID": "1000031576", "EPA_ID": "100000146175", "POSREL": "WITHIN 166 FEET", "CAPACITY": 115000, "US_RANK": 60, "CRUDE": 115000, "VACDIST": 46000, "COKING": 22500, "THERMALOP": 0, "CATCRACK": 33900, "CATREFORM": 24000, "CATHYDCRCK": 0, "CATHYDTRT": 124000, "ALKY": 10000, "POLDIM": 0, "AROMATIC": 0, "ISOMER": 0, "LUBES": 0, "OXYGENATES": 0, "HYDRGN": 22, "COKE": 8700, "SULFUR": 229, "ASPHALT": 0 }, "geometry": { "type": "Point", "coordinates": [ -95.605678459999979, 37.050829192000037 ] } },
{ "type": "Feature", "properties": { "OBJECTID": 117, "REF_ID": "REF420123", "NAME": "TRAINER", "ADDRESS": "4101 POST ROAD", "CITY": "TRAINER", "STATE": "PA", "ZIP": "19061", "ZIP4": "NOT AVAILABLE", "TELEPHONE": "(610) 364-8399", "TYPE": "MEDIUM SIZED MEDIUM COMPLEXITY REFINERY PRODUCES HIGH QUALITY TRANSPORTATION FUELS", "STATUS": "IN SERVICE", "POPULATION": 304, "COUNTY": "DELAWARE", "COUNTYFIPS": "42045", "COUNTRY": "USA", "LATITUDE": 39.82213, "LONGITUDE": -75.40365, "NAICS_CODE": "324110", "NAICS_DESC": "PETROLEUM REFINERIES", "SOURCE": "EIA-820; EPA TRI", "SOURCEDATE": "2017\/01\/01 00:00:00", "VAL_METHOD": "IMAGERY\/OTHER", "VAL_DATE": "2018\/01\/31 00:00:00", "WEBSITE": "http:\/\/www.monroe-energy.com", "OWNER": "DELTA AIR LINES INC", "OPERNAME": "MONROE ENERGY LLC", "RMP_ID": "1000032186", "EPA_ID": "100000130244", "POSREL": "WITHIN 166 FEET", "CAPACITY": 190000, "US_RANK": 38, "CRUDE": 190000, "VACDIST": 73000, "COKING": 0, "THERMALOP": 0, "CATCRACK": 51500, "CATREFORM": 45000, "CATHYDCRCK": 21500, "CATHYDTRT": 167300, "ALKY": 12000, "POLDIM": 0, "AROMATIC": 0, "ISOMER": 0, "LUBES": 0, "OXYGENATES": 0, "HYDRGN": 0, "COKE": 0, "SULFUR": 90, "ASPHALT": 0 }, "geometry": { "type": "Point", "coordinates": [ -75.40365, 39.82213 ] } },
{ "type": "Feature", "properties": { "OBJECTID": 118, "REF_ID": "REF560124", "NAME": "EVANSVILLE", "ADDRESS": "5700 EAST HIGHWAY 20-26", "CITY": "EVANSVILLE", "STATE": "WY", "ZIP": "82636", "ZIP4": "NOT AVAILABLE", "TELEPHONE": "(307) 265-2800", "TYPE": "SMALL MEDIUM COMPLEXITY REFINERY", "STATUS": "IN SERVICE", "POPULATION": 112, "COUNTY": "NATRONA", "COUNTYFIPS": "56025", "COUNTRY": "USA", "LATITUDE": 42.8611, "LONGITUDE": -106.24224, "NAICS_CODE": "324110", "NAICS_DESC": "PETROLEUM REFINERIES", "SOURCE": "EIA-820; EPA TRI", "SOURCEDATE": "2017\/01\/01 00:00:00", "VAL_METHOD": "IMAGERY\/OTHER", "VAL_DATE": "2018\/01\/31 00:00:00", "WEBSITE": "https:\/\/www.sinclairoil.com", "OWNER": "SINCLAIR OIL CORP", "OPERNAME": "LITTLE AMERICA REFINING CO", "RMP_ID": "1000032646", "EPA_ID": "100000144943", "POSREL": "WITHIN 166 FEET", "CAPACITY": 24500, "US_RANK": 115, "CRUDE": 24500, "VACDIST": 0, "COKING": 0, "THERMALOP": 0, "CATCRACK": 8900, "CATREFORM": 4000, "CATHYDCRCK": 0, "CATHYDTRT": 24500, "ALKY": 0, "POLDIM": 0, "AROMATIC": 0, "ISOMER": 0, "LUBES": 0, "OXYGENATES": 0, "HYDRGN": 0, "COKE": 0, "SULFUR": 10, "ASPHALT": 0 }, "geometry": { "type": "Point", "coordinates": [ -106.24224, 42.8611 ] } },
{ "type": "Feature", "properties": { "OBJECTID": 119, "REF_ID": "REF060125", "NAME": "WILMINGTON", "ADDRESS": "2402 EAST ANAHEIM", "CITY": "WILMINGTON", "STATE": "CA", "ZIP": "90744", "ZIP4": "NOT AVAILABLE", "TELEPHONE": "(562) 491-6877", "TYPE": "MEDIUM SIZED COMPLEX REFINERY", "STATUS": "IN SERVICE", "POPULATION": 425, "COUNTY": "LOS ANGELES", "COUNTYFIPS": "06037", "COUNTRY": "USA", "LATITUDE": 33.77884, "LONGITUDE": -118.23507, "NAICS_CODE": "324110", "NAICS_DESC": "PETROLEUM REFINERIES", "SOURCE": "EIA-820", "SOURCEDATE": "2017\/01\/01 00:00:00", "VAL_METHOD": "IMAGERY\/OTHER", "VAL_DATE": "2018\/01\/31 00:00:00", "WEBSITE": "http:\/\/www.valero.com", "OWNER": "VALERO ENERGY CORP", "OPERNAME": "VALERO REFINING CO CALIFORNIA", "RMP_ID": "1000032678", "EPA_ID": "100000080636", "POSREL": "WITHIN 166 FEET", "CAPACITY": 85000, "US_RANK": 74, "CRUDE": 85000, "VACDIST": 46000, "COKING": 27700, "THERMALOP": 0, "CATCRACK": 52200, "CATREFORM": 17400, "CATHYDCRCK": 0, "CATHYDTRT": 144000, "ALKY": 22000, "POLDIM": 0, "AROMATIC": 0, "ISOMER": 0, "LUBES": 0, "OXYGENATES": 0, "HYDRGN": 0, "COKE": 10000, "SULFUR": 280, "ASPHALT": 0 }, "geometry": { "type": "Point", "coordinates": [ -118.23507, 33.77884 ] } },
{ "type": "Feature", "properties": { "OBJECTID": 120, "REF_ID": "REF480126", "NAME": "GALVESTON BAY", "ADDRESS": "2800 FM 519 EAST", "CITY": "TEXAS CITY", "STATE": "TX", "ZIP": "77590", "ZIP4": "NOT AVAILABLE", "TELEPHONE": "(409) 945-1970", "TYPE": "VERY LARGE COMPLEX REFINERY", "STATUS": "IN SERVICE", "POPULATION": 1790, "COUNTY": "GALVESTON", "COUNTYFIPS": "48167", "COUNTRY": "USA", "LATITUDE": 29.37217, "LONGITUDE": -94.92688, "NAICS_CODE": "324110", "NAICS_DESC": "PETROLEUM REFINERIES", "SOURCE": "EIA-820; EPA TRI", "SOURCEDATE": "2020\/06\/18 00:00:00", "VAL_METHOD": "IMAGERY\/OTHER", "VAL_DATE": "2020\/06\/22 00:00:00", "WEBSITE": "https:\/\/www.marathonpetroleum.com\/", "OWNER": "MARATHON PETROLEUM CORP", "OPERNAME": "MARATHON PETROLEUM CO LP", "RMP_ID": "1000032688", "EPA_ID": "100000092035", "POSREL": "WITHIN 166 FEET", "CAPACITY": 459000, "US_RANK": 5, "CRUDE": 459000, "VACDIST": 237000, "COKING": 29800, "THERMALOP": 0, "CATCRACK": 130200, "CATREFORM": 124300, "CATHYDCRCK": 144900, "CATHYDTRT": 417000, "ALKY": 41000, "POLDIM": 0, "AROMATIC": 36500, "ISOMER": 0, "LUBES": 0, "OXYGENATES": 0, "HYDRGN": 0, "COKE": 11900, "SULFUR": 1452, "ASPHALT": 0 }, "geometry": { "type": "Point", "coordinates": [ -94.92688, 29.37217 ] } },
{ "type": "Feature", "properties": { "OBJECTID": 121, "REF_ID": "REF300127", "NAME": "LAUREL", "ADDRESS": "803 HWY 212 SOUTH", "CITY": "LAUREL", "STATE": "MT", "ZIP": "59044", "ZIP4": "0909", "TELEPHONE": "(406) 628-5220", "TYPE": "MEDIUM SIZED MEDIUM COMPLEXITY REFINERY", "STATUS": "IN SERVICE", "POPULATION": 267, "COUNTY": "YELLOWSTONE", "COUNTYFIPS": "30111", "COUNTRY": "USA", "LATITUDE": 45.65832, "LONGITUDE": -108.76851, "NAICS_CODE": "324110", "NAICS_DESC": "PETROLEUM REFINERIES", "SOURCE": "EIA-820; EPA TRI", "SOURCEDATE": "2017\/01\/01 00:00:00", "VAL_METHOD": "IMAGERY\/OTHER", "VAL_DATE": "2018\/01\/31 00:00:00", "WEBSITE": "http:\/\/www.chsinc.com", "OWNER": "CHS INC", "OPERNAME": "CENEX HARVEST STATES COOP", "RMP_ID": "1000032978", "EPA_ID": "100000143285", "POSREL": "WITHIN 166 FEET", "CAPACITY": 59600, "US_RANK": 94, "CRUDE": 59600, "VACDIST": 29000, "COKING": 14000, "THERMALOP": 0, "CATCRACK": 15000, "CATREFORM": 11700, "CATHYDCRCK": 0, "CATHYDTRT": 62000, "ALKY": 4000, "POLDIM": 0, "AROMATIC": 0, "ISOMER": 2500, "LUBES": 0, "OXYGENATES": 0, "HYDRGN": 33, "COKE": 4100, "SULFUR": 243, "ASPHALT": 19800 }, "geometry": { "type": "Point", "coordinates": [ -108.76851, 45.65832 ] } },
{ "type": "Feature", "properties": { "OBJECTID": 122, "REF_ID": "REF530129", "NAME": "CHERRY POINT (FERNDALE)", "ADDRESS": "4519 GRANDVIEW ROAD", "CITY": "BLAINE", "STATE": "WA", "ZIP": "98230", "ZIP4": "NOT AVAILABLE", "TELEPHONE": "(360) 371-1500", "TYPE": "LARGE COMPLEX REFINERY", "STATUS": "IN SERVICE", "POPULATION": 820, "COUNTY": "WHATCOM", "COUNTYFIPS": "53073", "COUNTRY": "USA", "LATITUDE": 48.88423, "LONGITUDE": -122.73373, "NAICS_CODE": "324110", "NAICS_DESC": "PETROLEUM REFINERIES", "SOURCE": "EIA-820; EPA TRI", "SOURCEDATE": "2017\/01\/01 00:00:00", "VAL_METHOD": "IMAGERY\/OTHER", "VAL_DATE": "2018\/01\/31 00:00:00", "WEBSITE": "http:\/\/www.bp.com", "OWNER": "BP PLC", "OPERNAME": "BP WEST COAST PRODUCTS LLC", "RMP_ID": "1000033756", "EPA_ID": "100000048307", "POSREL": "WITHIN 166 FEET", "CAPACITY": 227000, "US_RANK": 29, "CRUDE": 227000, "VACDIST": 112000, "COKING": 55000, "THERMALOP": 0, "CATCRACK": 0, "CATREFORM": 58500, "CATHYDCRCK": 58400, "CATHYDTRT": 149000, "ALKY": 0, "POLDIM": 0, "AROMATIC": 0, "ISOMER": 24000, "LUBES": 0, "OXYGENATES": 0, "HYDRGN": 137, "COKE": 15250, "SULFUR": 284, "ASPHALT": 0 }, "geometry": { "type": "Point", "coordinates": [ -122.73373, 48.88423 ] } },
{ "type": "Feature", "properties": { "OBJECTID": 123, "REF_ID": "REF300130", "NAME": "BILLINGS", "ADDRESS": "700 EXXONMOBIL ROAD", "CITY": "BILLINGS", "STATE": "MT", "ZIP": "59101", "ZIP4": "NOT AVAILABLE", "TELEPHONE": "(406) 657-5267", "TYPE": "SMALL COMPLEX REFINERY CAPABLE OF PROCESSING HEAVY & SOUR CRUDE", "STATUS": "IN SERVICE", "POPULATION": 260, "COUNTY": "YELLOWSTONE", "COUNTYFIPS": "30111", "COUNTRY": "USA", "LATITUDE": 45.81427, "LONGITUDE": -108.43355, "NAICS_CODE": "324110", "NAICS_DESC": "PETROLEUM REFINERIES", "SOURCE": "EIA-820; EPA TRI", "SOURCEDATE": "2017\/01\/01 00:00:00", "VAL_METHOD": "IMAGERY\/OTHER", "VAL_DATE": "2018\/01\/31 00:00:00", "WEBSITE": "http:\/\/corporate.exxonmobil.com", "OWNER": "EXXON MOBIL CORP", "OPERNAME": "EXXONMOBIL REFINING & SUPPLY CO", "RMP_ID": "1000034218", "EPA_ID": "100000093533", "POSREL": "WITHIN 166 FEET", "CAPACITY": 61500, "US_RANK": 92, "CRUDE": 61500, "VACDIST": 32300, "COKING": 9500, "THERMALOP": 0, "CATCRACK": 22830, "CATREFORM": 12000, "CATHYDCRCK": 5500, "CATHYDTRT": 60900, "ALKY": 5100, "POLDIM": 0, "AROMATIC": 0, "ISOMER": 0, "LUBES": 0, "OXYGENATES": 0, "HYDRGN": 23, "COKE": 4000, "SULFUR": 0, "ASPHALT": 14500 }, "geometry": { "type": "Point", "coordinates": [ -108.43355, 45.81427 ] } },
{ "type": "Feature", "properties": { "OBJECTID": 124, "REF_ID": "REF480131", "NAME": "BILL GREEHEY (CORPUS CHRISTI WEST AND EAST PLANTS)", "ADDRESS": "1300 CANTWELL BLVD", "CITY": "CORPUS CHRISTI", "STATE": "TX", "ZIP": "78407", "ZIP4": "NOT AVAILABLE", "TELEPHONE": "(361) 289-6000", "TYPE": "VERY LARGE COMPLEX REFINERY", "STATUS": "IN SERVICE", "POPULATION": 800, "COUNTY": "NUECES", "COUNTYFIPS": "48355", "COUNTRY": "USA", "LATITUDE": 27.8112, "LONGITUDE": -97.44167, "NAICS_CODE": "324110", "NAICS_DESC": "PETROLEUM REFINERIES", "SOURCE": "EIA-820; EPA TRI", "SOURCEDATE": "2017\/01\/01 00:00:00", "VAL_METHOD": "IMAGERY\/OTHER", "VAL_DATE": "2018\/01\/31 00:00:00", "WEBSITE": "https:\/\/www.valero.com", "OWNER": "VALERO ENERGY CORP", "OPERNAME": "VALERO REFINING CO TEXAS LP", "RMP_ID": "1000034257", "EPA_ID": "100000079504", "POSREL": "WITHIN 166 FEET", "CAPACITY": 293000, "US_RANK": 15, "CRUDE": 293000, "VACDIST": 97000, "COKING": 16500, "THERMALOP": 0, "CATCRACK": 93500, "CATREFORM": 48423, "CATHYDCRCK": 49500, "CATHYDTRT": 302250, "ALKY": 21300, "POLDIM": 0, "AROMATIC": 15500, "ISOMER": 46000, "LUBES": 0, "OXYGENATES": 0, "HYDRGN": 275, "COKE": 6270, "SULFUR": 1288, "ASPHALT": 38000 }, "geometry": { "type": "Point", "coordinates": [ -97.44167, 27.8112 ] } },
{ "type": "Feature", "properties": { "OBJECTID": 125, "REF_ID": "REF020133", "NAME": "NORTH POLE", "ADDRESS": "1200 H AND H LN", "CITY": "NORTH POLE", "STATE": "AK", "ZIP": "99705", "ZIP4": "NOT AVAILABLE", "TELEPHONE": "(907) 339-6635", "TYPE": "SMALL TOPPING REFINERY", "STATUS": "IN SERVICE", "POPULATION": -999, "COUNTY": "FAIRBANKS NORTH STAR", "COUNTYFIPS": "02090", "COUNTRY": "USA", "LATITUDE": 64.73242, "LONGITUDE": -147.34401, "NAICS_CODE": "324110", "NAICS_DESC": "PETROLEUM REFINERIES", "SOURCE": "EIA-820; EPA TRI", "SOURCEDATE": "2017\/01\/01 00:00:00", "VAL_METHOD": "IMAGERY\/OTHER", "VAL_DATE": "2018\/01\/31 00:00:00", "WEBSITE": "http:\/\/www.petrostar.com", "OWNER": "ARCTIC SLOPE REGIONAL CORP", "OPERNAME": "PETRO STAR INC", "RMP_ID": "1000059637", "EPA_ID": "100000233348", "POSREL": "WITHIN 166 FEET", "CAPACITY": 19700, "US_RANK": 119, "CRUDE": 19700, "VACDIST": 0, "COKING": 0, "THERMALOP": 0, "CATCRACK": 0, "CATREFORM": 0, "CATHYDCRCK": 0, "CATHYDTRT": 0, "ALKY": 0, "POLDIM": 0, "AROMATIC": 0, "ISOMER": 0, "LUBES": 0, "OXYGENATES": 0, "HYDRGN": 0, "COKE": 0, "SULFUR": 0, "ASPHALT": 3000 }, "geometry": { "type": "Point", "coordinates": [ -147.34401, 64.73242 ] } },
{ "type": "Feature", "properties": { "OBJECTID": 126, "REF_ID": "REF480134", "NAME": "NIXON", "ADDRESS": "11372 US HWY 87 E", "CITY": "NIXON", "STATE": "TX", "ZIP": "78160", "ZIP4": "NOT AVAILABLE", "TELEPHONE": "(713) 568-4725", "TYPE": "VERY SMALL SIMPLE REFINERY", "STATUS": "IN SERVICE", "POPULATION": -999, "COUNTY": "WILSON", "COUNTYFIPS": "48493", "COUNTRY": "USA", "LATITUDE": 29.26145, "LONGITUDE": -97.78658, "NAICS_CODE": "324110", "NAICS_DESC": "PETROLEUM REFINERIES", "SOURCE": "EIA-820; EPA ENVIROFACTS", "SOURCEDATE": "2017\/01\/01 00:00:00", "VAL_METHOD": "IMAGERY\/OTHER", "VAL_DATE": "2018\/01\/31 00:00:00", "WEBSITE": "http:\/\/www.blue-dolphin-energy.com", "OWNER": "BLUE DOLPHIN ENERGY CO", "OPERNAME": "LAZARUS ENERGY LLC", "RMP_ID": "NOT AVAILABLE", "EPA_ID": "NOT AVAILABLE", "POSREL": "WITHIN 166 FEET", "CAPACITY": 13765, "US_RANK": 124, "CRUDE": 13765, "VACDIST": 0, "COKING": 0, "THERMALOP": 0, "CATCRACK": 0, "CATREFORM": 0, "CATHYDCRCK": 0, "CATHYDTRT": 0, "ALKY": 0, "POLDIM": 0, "AROMATIC": 0, "ISOMER": 0, "LUBES": 0, "OXYGENATES": 0, "HYDRGN": 0, "COKE": 0, "SULFUR": 0, "ASPHALT": 0 }, "geometry": { "type": "Point", "coordinates": [ -97.78658, 29.26145 ] } },
{ "type": "Feature", "properties": { "OBJECTID": 127, "REF_ID": "REF020135", "NAME": "PRUDHOE BAY", "ADDRESS": "NOT AVAILABLE", "CITY": "PRUDHOE BAY", "STATE": "AK", "ZIP": "99734", "ZIP4": "NOT AVAILABLE", "TELEPHONE": "(907) 659-3101", "TYPE": "OIL FIELD TOPPING UNIT", "STATUS": "IN SERVICE", "POPULATION": -999, "COUNTY": "NORTH SLOPE (B)", "COUNTYFIPS": "02185", "COUNTRY": "USA", "LATITUDE": 70.25498, "LONGITUDE": -148.34731, "NAICS_CODE": "324110", "NAICS_DESC": "PETROLEUM REFINERIES", "SOURCE": "EIA-820; EPA TRI", "SOURCEDATE": "2017\/01\/01 00:00:00", "VAL_METHOD": "IMAGERY\/OTHER", "VAL_DATE": "2018\/01\/31 00:00:00", "WEBSITE": "https:\/\/www.bp.com", "OWNER": "BP PLC", "OPERNAME": "BP EXPLORATION ALASKA INC", "RMP_ID": "1000039291", "EPA_ID": "100000212003", "POSREL": "WITHIN 166 FEET", "CAPACITY": 6500, "US_RANK": 132, "CRUDE": 6500, "VACDIST": 0, "COKING": 0, "THERMALOP": 0, "CATCRACK": 0, "CATREFORM": 0, "CATHYDCRCK": 0, "CATHYDTRT": 0, "ALKY": 0, "POLDIM": 0, "AROMATIC": 0, "ISOMER": 0, "LUBES": 0, "OXYGENATES": 0, "HYDRGN": 0, "COKE": 0, "SULFUR": 0, "ASPHALT": 0 }, "geometry": { "type": "Point", "coordinates": [ -148.34731, 70.25498 ] } },
{ "type": "Feature", "properties": { "OBJECTID": 128, "REF_ID": "REF220137", "NAME": "PRINCETON", "ADDRESS": "10234 HWY 157", "CITY": "PRINCETON", "STATE": "LA", "ZIP": "71067", "ZIP4": "9172", "TELEPHONE": "(318) 949-8704", "TYPE": "SMALL SIMPLE REFINERY", "STATUS": "IN SERVICE", "POPULATION": -999, "COUNTY": "BOSSIER", "COUNTYFIPS": "22015", "COUNTRY": "USA", "LATITUDE": 32.59091, "LONGITUDE": -93.51259, "NAICS_CODE": "324110", "NAICS_DESC": "PETROLEUM REFINERIES", "SOURCE": "EIA-820; EPA TRI", "SOURCEDATE": "2017\/01\/01 00:00:00", "VAL_METHOD": "IMAGERY\/OTHER", "VAL_DATE": "2018\/01\/31 00:00:00", "WEBSITE": "http:\/\/www.calumetspecialty.com", "OWNER": "CALUMET SPECIALTY PRODUCTS PARTNERS, L.P.", "OPERNAME": "CALUMET LUBRICANTS CO LP", "RMP_ID": "NOT AVAILABLE", "EPA_ID": "NOT AVAILABLE", "POSREL": "WITHIN 166 FEET", "CAPACITY": 8300, "US_RANK": 130, "CRUDE": 8300, "VACDIST": 7000, "COKING": 0, "THERMALOP": 0, "CATCRACK": 0, "CATREFORM": 0, "CATHYDCRCK": 0, "CATHYDTRT": 0, "ALKY": 0, "POLDIM": 0, "AROMATIC": 0, "ISOMER": 0, "LUBES": 7000, "OXYGENATES": 0, "HYDRGN": 4, "COKE": 0, "SULFUR": 3, "ASPHALT": 2000 }, "geometry": { "type": "Point", "coordinates": [ -93.51259, 32.59091 ] } },
{ "type": "Feature", "properties": { "OBJECTID": 129, "REF_ID": "REF020138", "NAME": "PRUDHOE BAY", "ADDRESS": "NOT AVAILABLE", "CITY": "KUPARUK", "STATE": "AK", "ZIP": "99734", "ZIP4": "NOT AVAILABLE", "TELEPHONE": "(907) 659-3101", "TYPE": "OIL FIELD TOPPING UNIT", "STATUS": "IN SERVICE", "POPULATION": -999, "COUNTY": "NORTH SLOPE (B)", "COUNTYFIPS": "02185", "COUNTRY": "USA", "LATITUDE": 70.32539, "LONGITUDE": -149.6059, "NAICS_CODE": "324110", "NAICS_DESC": "PETROLEUM REFINERIES", "SOURCE": "EIA-820; EPA TRI", "SOURCEDATE": "2017\/01\/01 00:00:00", "VAL_METHOD": "IMAGERY\/OTHER", "VAL_DATE": "2018\/01\/31 00:00:00", "WEBSITE": "http:\/\/www.conocophillips.com", "OWNER": "CONOCOPHILLIPS", "OPERNAME": "CONOCOPHILLIPS ALASKA INC", "RMP_ID": "NOT AVAILABLE", "EPA_ID": "NOT AVAILABLE", "POSREL": "WITHIN 166 FEET", "CAPACITY": 15000, "US_RANK": 123, "CRUDE": 15000, "VACDIST": 0, "COKING": 0, "THERMALOP": 0, "CATCRACK": 0, "CATREFORM": 0, "CATHYDCRCK": 0, "CATHYDTRT": 0, "ALKY": 0, "POLDIM": 0, "AROMATIC": 0, "ISOMER": 0, "LUBES": 0, "OXYGENATES": 0, "HYDRGN": 0, "COKE": 0, "SULFUR": 0, "ASPHALT": 0 }, "geometry": { "type": "Point", "coordinates": [ -149.6059, 70.32539 ] } },
{ "type": "Feature", "properties": { "OBJECTID": 130, "REF_ID": "REF320139", "NAME": "ELY", "ADDRESS": "HC 34 BOX 34830 AND 65 MILES SW OF ELY ON HWY 6", "CITY": "ELY", "STATE": "NV", "ZIP": "89049", "ZIP4": "NOT AVAILABLE", "TELEPHONE": "(801) 296-8211", "TYPE": "VERY SMALL REFINERY", "STATUS": "IN SERVICE", "POPULATION": -999, "COUNTY": "NYE", "COUNTYFIPS": "32023", "COUNTRY": "USA", "LATITUDE": 38.6222, "LONGITUDE": -115.61858, "NAICS_CODE": "324110", "NAICS_DESC": "PETROLEUM REFINERIES", "SOURCE": "EIA-820; EPA TRI", "SOURCEDATE": "2017\/01\/01 00:00:00", "VAL_METHOD": "IMAGERY\/OTHER", "VAL_DATE": "2018\/01\/31 00:00:00", "WEBSITE": "NOT AVAILABLE", "OWNER": "FORELAND REFINING CORP", "OPERNAME": "FORELAND REFINING CORP", "RMP_ID": "NOT AVAILABLE", "EPA_ID": "NOT AVAILABLE", "POSREL": "WITHIN 166 FEET", "CAPACITY": 2000, "US_RANK": 137, "CRUDE": 2000, "VACDIST": 2750, "COKING": 0, "THERMALOP": 0, "CATCRACK": 0, "CATREFORM": 0, "CATHYDCRCK": 0, "CATHYDTRT": 0, "ALKY": 0, "POLDIM": 0, "AROMATIC": 0, "ISOMER": 0, "LUBES": 0, "OXYGENATES": 0, "HYDRGN": 0, "COKE": 0, "SULFUR": 0, "ASPHALT": 1600 }, "geometry": { "type": "Point", "coordinates": [ -115.61858, 38.6222 ] } },
{ "type": "Feature", "properties": { "OBJECTID": 131, "REF_ID": "REF010141", "NAME": "ATMORE", "ADDRESS": "4745 ROSS ROAD", "CITY": "ATMORE", "STATE": "AL", "ZIP": "36502", "ZIP4": "NOT AVAILABLE", "TELEPHONE": "(251) 294-5660", "TYPE": "VERY SMALL TOPPING REFINERY", "STATUS": "IN SERVICE", "POPULATION": -999, "COUNTY": "ESCAMBIA", "COUNTYFIPS": "01053", "COUNTRY": "USA", "LATITUDE": 31.18137, "LONGITUDE": -87.4394, "NAICS_CODE": "324110", "NAICS_DESC": "PETROLEUM REFINERIES", "SOURCE": "EIA-820", "SOURCEDATE": "2017\/01\/01 00:00:00", "VAL_METHOD": "IMAGERY\/OTHER", "VAL_DATE": "2018\/01\/31 00:00:00", "WEBSITE": "http:\/\/www.goodwayrefining.com", "OWNER": "GOODWAY REFINING LLC", "OPERNAME": "GOODWAY REFINING LLC", "RMP_ID": "1000053238", "EPA_ID": "100000211852", "POSREL": "WITHIN 166 FEET", "CAPACITY": 4100, "US_RANK": 135, "CRUDE": 4100, "VACDIST": 0, "COKING": 0, "THERMALOP": 0, "CATCRACK": 0, "CATREFORM": 0, "CATHYDCRCK": 0, "CATHYDTRT": 0, "ALKY": 0, "POLDIM": 0, "AROMATIC": 0, "ISOMER": 0, "LUBES": 0, "OXYGENATES": 0, "HYDRGN": 0, "COKE": 0, "SULFUR": 0, "ASPHALT": 0 }, "geometry": { "type": "Point", "coordinates": [ -87.4394, 31.18137 ] } },
{ "type": "Feature", "properties": { "OBJECTID": 132, "REF_ID": "REF060142", "NAME": "SANTA MARIA ASPHALT REFINERY", "ADDRESS": "1700 SINTON ROAD", "CITY": "SANTA MARIA", "STATE": "CA", "ZIP": "93458", "ZIP4": "9708", "TELEPHONE": "(805) 347-8700", "TYPE": "LARGE REFINERY", "STATUS": "IN SERVICE", "POPULATION": 126, "COUNTY": "SANTA BARBARA", "COUNTYFIPS": "06083", "COUNTRY": "USA", "LATITUDE": 34.93032, "LONGITUDE": -120.51069, "NAICS_CODE": "324110", "NAICS_DESC": "PETROLEUM REFINERIES", "SOURCE": "EIA-820; EPA ENVIROFACTS", "SOURCEDATE": "2017\/01\/01 00:00:00", "VAL_METHOD": "IMAGERY\/OTHER", "VAL_DATE": "2018\/01\/31 00:00:00", "WEBSITE": "http:\/\/www.greka.com", "OWNER": "GREKA ENERGY", "OPERNAME": "SANTA MARIA REFINING COMPANY", "RMP_ID": "NOT AVAILABLE", "EPA_ID": "110000481817", "POSREL": "WITHIN 166 FEET", "CAPACITY": 9500, "US_RANK": 128, "CRUDE": 9500, "VACDIST": 10000, "COKING": 0, "THERMALOP": 0, "CATCRACK": 0, "CATREFORM": 0, "CATHYDCRCK": 0, "CATHYDTRT": 0, "ALKY": 0, "POLDIM": 0, "AROMATIC": 0, "ISOMER": 0, "LUBES": 0, "OXYGENATES": 0, "HYDRGN": 0, "COKE": 0, "SULFUR": 0, "ASPHALT": 6000 }, "geometry": { "type": "Point", "coordinates": [ -120.51069, 34.93032 ] } },
{ "type": "Feature", "properties": { "OBJECTID": 133, "REF_ID": "REF340143", "NAME": "PAULSBORO", "ADDRESS": "4 PARADISE ROAD", "CITY": "PAULSBORO", "STATE": "NJ", "ZIP": "08086", "ZIP4": "NOT AVAILABLE", "TELEPHONE": "(856) 224-7405", "TYPE": "SPECIALIST ASPHALT REFINERY", "STATUS": "CLOSED", "POPULATION": 80, "COUNTY": "GLOUCESTER", "COUNTYFIPS": "34015", "COUNTRY": "USA", "LATITUDE": 39.84615, "LONGITUDE": -75.2256, "NAICS_CODE": "324110", "NAICS_DESC": "PETROLEUM REFINERIES", "SOURCE": "EIA-820; EPA TRI", "SOURCEDATE": "2017\/01\/01 00:00:00", "VAL_METHOD": "IMAGERY\/OTHER", "VAL_DATE": "2018\/01\/31 00:00:00", "WEBSITE": "http:\/\/axeonsp.com\/", "OWNER": "LINDSAY GOLDBERG LLC", "OPERNAME": "AXEON SPECIALTY PRODUCTS LLC", "RMP_ID": "NOT AVAILABLE", "EPA_ID": "NOT AVAILABLE", "POSREL": "WITHIN 166 FEET", "CAPACITY": 74000, "US_RANK": 82, "CRUDE": 0, "VACDIST": 32000, "COKING": 0, "THERMALOP": 0, "CATCRACK": 0, "CATREFORM": 0, "CATHYDCRCK": 0, "CATHYDTRT": 0, "ALKY": 0, "POLDIM": 0, "AROMATIC": 0, "ISOMER": 0, "LUBES": 0, "OXYGENATES": 0, "HYDRGN": 0, "COKE": 0, "SULFUR": 0, "ASPHALT": 49000 }, "geometry": { "type": "Point", "coordinates": [ -75.2256, 39.84615 ] } },
{ "type": "Feature", "properties": { "OBJECTID": 134, "REF_ID": "REF060145", "NAME": "BAKERSFIELD", "ADDRESS": "3542 SHELL ST", "CITY": "BAKERSFIELD", "STATE": "CA", "ZIP": "93308", "ZIP4": "NOT AVAILABLE", "TELEPHONE": "(661) 852-2504", "TYPE": "SMALL REFINERY", "STATUS": "IN SERVICE", "POPULATION": -999, "COUNTY": "KERN", "COUNTYFIPS": "06029", "COUNTRY": "USA", "LATITUDE": 35.39724, "LONGITUDE": -119.04671, "NAICS_CODE": "324110", "NAICS_DESC": "PETROLEUM REFINERIES", "SOURCE": "EIA-820; EPA TRI", "SOURCEDATE": "2017\/01\/01 00:00:00", "VAL_METHOD": "IMAGERY\/OTHER", "VAL_DATE": "2018\/01\/31 00:00:00", "WEBSITE": "http:\/\/www.sjr.com", "OWNER": "SAN JOAQUIN REFINING CO INC", "OPERNAME": "SAN JOAQUIN REFINING CO INC", "RMP_ID": "NOT AVAILABLE", "EPA_ID": "NOT AVAILABLE", "POSREL": "WITHIN 1 MILE", "CAPACITY": 15000, "US_RANK": 121, "CRUDE": 15000, "VACDIST": 14300, "COKING": 0, "THERMALOP": 5000, "CATCRACK": 0, "CATREFORM": 0, "CATHYDCRCK": 0, "CATHYDTRT": 5400, "ALKY": 0, "POLDIM": 0, "AROMATIC": 1500, "ISOMER": 0, "LUBES": 5800, "OXYGENATES": 0, "HYDRGN": 4, "COKE": 0, "SULFUR": 6, "ASPHALT": 8000 }, "geometry": { "type": "Point", "coordinates": [ -119.04671, 35.39724 ] } },
{ "type": "Feature", "properties": { "OBJECTID": 135, "REF_ID": "REF060146", "NAME": "WILMINGTON ASPHALT PLANT", "ADDRESS": "1651 S ALAMEDA STREET", "CITY": "WILMINGTON", "STATE": "CA", "ZIP": "90744", "ZIP4": "NOT AVAILABLE", "TELEPHONE": "(562) 491-6890", "TYPE": "SMALL ASPHALT REFINERY", "STATUS": "IN SERVICE", "POPULATION": -999, "COUNTY": "LOS ANGELES", "COUNTYFIPS": "06037", "COUNTRY": "USA", "LATITUDE": 33.7976, "LONGITUDE": -118.23925, "NAICS_CODE": "324110", "NAICS_DESC": "PETROLEUM REFINERIES", "SOURCE": "EIA-820; EPA TRI", "SOURCEDATE": "2017\/01\/01 00:00:00", "VAL_METHOD": "IMAGERY\/OTHER", "VAL_DATE": "2018\/01\/31 00:00:00", "WEBSITE": "https:\/\/www.valero.com\/en-us", "OWNER": "VALERO ENERGY CORP", "OPERNAME": "VALERO REFINING CO CALIFORNIA", "RMP_ID": "NOT AVAILABLE", "EPA_ID": "NOT AVAILABLE", "POSREL": "WITHIN 166 FEET", "CAPACITY": 6300, "US_RANK": 133, "CRUDE": 6300, "VACDIST": 5000, "COKING": 0, "THERMALOP": 0, "CATCRACK": 0, "CATREFORM": 0, "CATHYDCRCK": 0, "CATHYDTRT": 0, "ALKY": 0, "POLDIM": 0, "AROMATIC": 0, "ISOMER": 0, "LUBES": 0, "OXYGENATES": 0, "HYDRGN": 0, "COKE": 0, "SULFUR": 0, "ASPHALT": 3500 }, "geometry": { "type": "Point", "coordinates": [ -118.23925, 33.7976 ] } },
{ "type": "Feature", "properties": { "OBJECTID": 136, "REF_ID": "REFBC0147", "NAME": "BURNABY", "ADDRESS": "5201 PENZANCE DRIVE AND 355 N WILLINGDON AVENUE", "CITY": "BURNABY", "STATE": "BC", "ZIP": "V5C 1X4", "ZIP4": "NOT AVAILABLE", "TELEPHONE": "(604) 299-8580", "TYPE": "MEDIUM SIZED MEDIUM COMPLEXITY REFINERY", "STATUS": "IN SERVICE", "POPULATION": 250, "COUNTY": "NOT AVAILABLE", "COUNTYFIPS": "NOT APPLICABLE", "COUNTRY": "CAN", "LATITUDE": 49.29336, "LONGITUDE": -122.98734, "NAICS_CODE": "324110", "NAICS_DESC": "PETROLEUM REFINERIES", "SOURCE": "CAPP", "SOURCEDATE": "2017\/01\/01 00:00:00", "VAL_METHOD": "IMAGERY\/OTHER", "VAL_DATE": "2018\/01\/31 00:00:00", "WEBSITE": "http:\/\/www.parkland.ca\/en\/", "OWNER": "PARKLAND FUEL CORPORATION", "OPERNAME": "PARKLAND FUEL CORPORATION", "RMP_ID": "NOT APPLICABLE", "EPA_ID": "NOT APPLICABLE", "POSREL": "WITHIN 166 FEET", "CAPACITY": 55000, "US_RANK": -999, "CRUDE": 54721, "VACDIST": 11951, "COKING": -999, "THERMALOP": 0, "CATCRACK": 17611, "CATREFORM": 9749, "CATHYDCRCK": 0, "CATHYDTRT": 45287, "ALKY": 2830, "POLDIM": 0, "AROMATIC": -999, "ISOMER": 9749, "LUBES": 0, "OXYGENATES": 0, "HYDRGN": -999, "COKE": 0, "SULFUR": 107, "ASPHALT": 2201 }, "geometry": { "type": "Point", "coordinates": [ -122.98734, 49.29336 ] } },
{ "type": "Feature", "properties": { "OBJECTID": 137, "REF_ID": "REFSK0148", "NAME": "REGINA (CO-OP REFINERY COMPLEX)", "ADDRESS": "9 AVENUE N AND MCDONALD STREET", "CITY": "REGINA", "STATE": "SK", "ZIP": "S4P 3A1", "ZIP4": "NOT AVAILABLE", "TELEPHONE": "(306) 721-5353", "TYPE": "SMALL TOPPING REFINERY", "STATUS": "IN SERVICE", "POPULATION": 800, "COUNTY": "NOT AVAILABLE", "COUNTYFIPS": "NOT APPLICABLE", "COUNTRY": "CAN", "LATITUDE": 50.48602, "LONGITUDE": -104.57294, "NAICS_CODE": "324110", "NAICS_DESC": "PETROLEUM REFINERIES", "SOURCE": "CAPP", "SOURCEDATE": "2017\/01\/01 00:00:00", "VAL_METHOD": "IMAGERY\/OTHER", "VAL_DATE": "2018\/01\/31 00:00:00", "WEBSITE": "http:\/\/www.ccrl-fcl.ca", "OWNER": "FEDERATED CO-OPERATIVES LIMITED (FCL)", "OPERNAME": "FCL CO-OP REFINERY COMPLEX", "RMP_ID": "NOT APPLICABLE", "EPA_ID": "NOT APPLICABLE", "POSREL": "WITHIN 166 FEET", "CAPACITY": 135000, "US_RANK": -999, "CRUDE": 135231, "VACDIST": 37739, "COKING": -999, "THERMALOP": 8994, "CATCRACK": 47803, "CATREFORM": 9749, "CATHYDCRCK": 59124, "CATHYDTRT": 69817, "ALKY": 0, "POLDIM": 8806, "AROMATIC": -999, "ISOMER": 3994, "LUBES": 0, "OXYGENATES": 0, "HYDRGN": -999, "COKE": 2422, "SULFUR": 2642, "ASPHALT": 4403 }, "geometry": { "type": "Point", "coordinates": [ -104.57294, 50.48602 ] } },
{ "type": "Feature", "properties": { "OBJECTID": 138, "REF_ID": "REFQC0149", "NAME": "JEAN GAULIN", "ADDRESS": "165 CHEMIN DES ILES", "CITY": "LEVIS", "STATE": "QC", "ZIP": "G6W 0S5", "ZIP4": "NOT AVAILABLE", "TELEPHONE": "(418) 837-3641", "TYPE": "LARGE COMPLEX REFINERY", "STATUS": "IN SERVICE", "POPULATION": 500, "COUNTY": "NOT AVAILABLE", "COUNTYFIPS": "NOT APPLICABLE", "COUNTRY": "CAN", "LATITUDE": 46.75882, "LONGITUDE": -71.19313, "NAICS_CODE": "324110", "NAICS_DESC": "PETROLEUM REFINERIES", "SOURCE": "CAPP", "SOURCEDATE": "2017\/01\/01 00:00:00", "VAL_METHOD": "IMAGERY\/OTHER", "VAL_DATE": "2018\/01\/31 00:00:00", "WEBSITE": "http:\/\/www.valero.com", "OWNER": "VALERO ENERGY CORPORATION", "OPERNAME": "VALERO ENERGY INC", "RMP_ID": "NOT APPLICABLE", "EPA_ID": "NOT APPLICABLE", "POSREL": "WITHIN 166 FEET", "CAPACITY": 265000, "US_RANK": -999, "CRUDE": 264990, "VACDIST": 48985, "COKING": -999, "THERMALOP": 0, "CATCRACK": 69999, "CATREFORM": 19002, "CATHYDCRCK": 0, "CATHYDTRT": 251989, "ALKY": 7667, "POLDIM": 0, "AROMATIC": -999, "ISOMER": 29097, "LUBES": 0, "OXYGENATES": 0, "HYDRGN": -999, "COKE": 0, "SULFUR": 503, "ASPHALT": 0 }, "geometry": { "type": "Point", "coordinates": [ -71.19313, 46.75882 ] } },
{ "type": "Feature", "properties": { "OBJECTID": 139, "REF_ID": "REFON0150", "NAME": "SARNIA", "ADDRESS": "602 CHRISTINA STREET SOUTH", "CITY": "SARNIA", "STATE": "ON", "ZIP": "N7T 5W3", "ZIP4": "NOT AVAILABLE", "TELEPHONE": "(519) 339-4015", "TYPE": "MEDIUM TO LARGE COMPLEX REFINERY", "STATUS": "IN SERVICE", "POPULATION": 392, "COUNTY": "NOT AVAILABLE", "COUNTYFIPS": "NOT APPLICABLE", "COUNTRY": "CAN", "LATITUDE": 42.95168, "LONGITUDE": -82.41765, "NAICS_CODE": "324110", "NAICS_DESC": "PETROLEUM REFINERIES", "SOURCE": "CAPP", "SOURCEDATE": "2017\/01\/01 00:00:00", "VAL_METHOD": "IMAGERY\/OTHER", "VAL_DATE": "2018\/01\/31 00:00:00", "WEBSITE": "http:\/\/www.imperialoil.ca", "OWNER": "IMPERIAL OIL", "OPERNAME": "IMPERIAL OIL LTD", "RMP_ID": "NOT APPLICABLE", "EPA_ID": "NOT APPLICABLE", "POSREL": "WITHIN 166 FEET", "CAPACITY": 121000, "US_RANK": -999, "CRUDE": 118997, "VACDIST": 31499, "COKING": -999, "THERMALOP": 25499, "CATCRACK": 30499, "CATREFORM": 37500, "CATHYDCRCK": 19498, "CATHYDTRT": 88995, "ALKY": 0, "POLDIM": 0, "AROMATIC": -999, "ISOMER": 0, "LUBES": 0, "OXYGENATES": 0, "HYDRGN": -999, "COKE": 5346, "SULFUR": 1371, "ASPHALT": 0 }, "geometry": { "type": "Point", "coordinates": [ -82.41765, 42.95168 ] } },
{ "type": "Feature", "properties": { "OBJECTID": 140, "REF_ID": "REFNB0151", "NAME": "SAINT JOHN", "ADDRESS": "340 LOCH LOMOND ROAD", "CITY": "SAINT JOHN", "STATE": "NB", "ZIP": "E2J 3Z6", "ZIP4": "NOT AVAILABLE", "TELEPHONE": "(506) 202-4768", "TYPE": "LARGE COMPLEX REFINERY", "STATUS": "IN SERVICE", "POPULATION": 1400, "COUNTY": "NOT AVAILABLE", "COUNTYFIPS": "NOT APPLICABLE", "COUNTRY": "CAN", "LATITUDE": 45.28335, "LONGITUDE": -66.0092, "NAICS_CODE": "324110", "NAICS_DESC": "PETROLEUM REFINERIES", "SOURCE": "CAPP", "SOURCEDATE": "2017\/01\/01 00:00:00", "VAL_METHOD": "IMAGERY\/OTHER", "VAL_DATE": "2018\/01\/31 00:00:00", "WEBSITE": "https:\/\/www.irvingoilcommercial.com", "OWNER": "IRVING OIL", "OPERNAME": "IRVING OIL", "RMP_ID": "NOT APPLICABLE", "EPA_ID": "NOT APPLICABLE", "POSREL": "WITHIN 166 FEET", "CAPACITY": 300000, "US_RANK": -999, "CRUDE": 298766, "VACDIST": 109204, "COKING": -999, "THERMALOP": 19989, "CATCRACK": 94957, "CATREFORM": 38481, "CATHYDCRCK": 44978, "CATHYDTRT": 154931, "ALKY": 13995, "POLDIM": 0, "AROMATIC": -999, "ISOMER": 9995, "LUBES": 0, "OXYGENATES": 0, "HYDRGN": -999, "COKE": 0, "SULFUR": 1591, "ASPHALT": 0 }, "geometry": { "type": "Point", "coordinates": [ -66.0092, 45.28335 ] } },
{ "type": "Feature", "properties": { "OBJECTID": 141, "REF_ID": "REFON0152", "NAME": "NANTICOKE", "ADDRESS": "225 CONCESSION 2 WALPOLE ROAD", "CITY": "NANTICOKE", "STATE": "ON", "ZIP": "N0A 1L0", "ZIP4": "NOT AVAILABLE", "TELEPHONE": "(519) 339-4015", "TYPE": "MEDIUM TO LARGE COMPLEX REFINERY", "STATUS": "IN SERVICE", "POPULATION": 287, "COUNTY": "NOT AVAILABLE", "COUNTYFIPS": "NOT APPLICABLE", "COUNTRY": "CAN", "LATITUDE": 42.83385, "LONGITUDE": -80.0478, "NAICS_CODE": "324110", "NAICS_DESC": "PETROLEUM REFINERIES", "SOURCE": "CAPP", "SOURCEDATE": "2017\/01\/01 00:00:00", "VAL_METHOD": "IMAGERY\/OTHER", "VAL_DATE": "2018\/01\/31 00:00:00", "WEBSITE": "http:\/\/www.imperialoil.ca", "OWNER": "IMPERIAL OIL", "OPERNAME": "IMPERIAL OIL LTD", "RMP_ID": "NOT APPLICABLE", "EPA_ID": "NOT APPLICABLE", "POSREL": "WITHIN 166 FEET", "CAPACITY": 112000, "US_RANK": -999, "CRUDE": 113500, "VACDIST": 47998, "COKING": -999, "THERMALOP": 0, "CATCRACK": 48501, "CATREFORM": 33500, "CATHYDCRCK": 0, "CATHYDTRT": 98995, "ALKY": 12001, "POLDIM": 0, "AROMATIC": -999, "ISOMER": 0, "LUBES": 0, "OXYGENATES": 0, "HYDRGN": -999, "COKE": 0, "SULFUR": 629, "ASPHALT": 10001 }, "geometry": { "type": "Point", "coordinates": [ -80.0478, 42.83385 ] } },
{ "type": "Feature", "properties": { "OBJECTID": 142, "REF_ID": "REF050154", "NAME": "SMACKOVER", "ADDRESS": "484 E 6TH STREET", "CITY": "SMACKOVER", "STATE": "AR", "ZIP": "71762", "ZIP4": "NOT AVAILABLE", "TELEPHONE": "(870) 866-1508", "TYPE": "VERY SMALL SIMPLE REFINERY", "STATUS": "IN SERVICE", "POPULATION": -999, "COUNTY": "UNION", "COUNTYFIPS": "05139", "COUNTRY": "USA", "LATITUDE": 33.36335, "LONGITUDE": -92.71255, "NAICS_CODE": "324110", "NAICS_DESC": "PETROLEUM REFINERIES", "SOURCE": "EIA-820; EPA TRI", "SOURCEDATE": "2017\/01\/01 00:00:00", "VAL_METHOD": "IMAGERY\/OTHER", "VAL_DATE": "2018\/01\/31 00:00:00", "WEBSITE": "http:\/\/www.themartincompanies.com", "OWNER": "MARTIN RESOURCE MANAGEMENT GRP", "OPERNAME": "CROSS OIL REFINING & MARKETING INC", "RMP_ID": "1000050639", "EPA_ID": "100000230038", "POSREL": "WITHIN 166 FEET", "CAPACITY": 7500, "US_RANK": 131, "CRUDE": 7500, "VACDIST": 3850, "COKING": 0, "THERMALOP": 0, "CATCRACK": 0, "CATREFORM": 0, "CATHYDCRCK": 0, "CATHYDTRT": 5500, "ALKY": 0, "POLDIM": 0, "AROMATIC": 0, "ISOMER": 0, "LUBES": 5500, "OXYGENATES": 0, "HYDRGN": 3, "COKE": 0, "SULFUR": 0, "ASPHALT": 1000 }, "geometry": { "type": "Point", "coordinates": [ -92.71255, 33.36335 ] } },
{ "type": "Feature", "properties": { "OBJECTID": 143, "REF_ID": "REFNL0155", "NAME": "CADEREYTA (ING. HECTOR R LARA SOSA)", "ADDRESS": "KM 36 AUTOPISTA REYNOSA-MONTERREY", "CITY": "CADEREYTA JIMENEZ", "STATE": "NL", "ZIP": "NOT AVAILABLE", "ZIP4": "NOT AVAILABLE", "TELEPHONE": "(828) 269-0100", "TYPE": "LARGE COMPLEX REFINERY", "STATUS": "IN SERVICE", "POPULATION": 500, "COUNTY": "NOT AVAILABLE", "COUNTYFIPS": "NOT APPLICABLE", "COUNTRY": "MEX", "LATITUDE": 25.5877, "LONGITUDE": -99.94061, "NAICS_CODE": "324110", "NAICS_DESC": "PETROLEUM REFINERIES", "SOURCE": "EIA INTERNATIONAL; A BARREL FULL; HART ENERGY", "SOURCEDATE": "2017\/01\/01 00:00:00", "VAL_METHOD": "IMAGERY\/OTHER", "VAL_DATE": "2018\/01\/31 00:00:00", "WEBSITE": "http:\/\/www.ref.pemex.com", "OWNER": "PEMEX", "OPERNAME": "PETROLEOS MEXICANOS (PEMEX)", "RMP_ID": "NOT APPLICABLE", "EPA_ID": "NOT APPLICABLE", "POSREL": "WITHIN 166 FEET", "CAPACITY": 275000, "US_RANK": -999, "CRUDE": 275000, "VACDIST": 137000, "COKING": 50000, "THERMALOP": 0, "CATCRACK": 65000, "CATREFORM": 20000, "CATHYDCRCK": 0, "CATHYDTRT": 86500, "ALKY": 5900, "POLDIM": 0, "AROMATIC": 0, "ISOMER": 12000, "LUBES": 0, "OXYGENATES": 80000, "HYDRGN": 60, "COKE": 0, "SULFUR": 480, "ASPHALT": 20000 }, "geometry": { "type": "Point", "coordinates": [ -99.94061, 25.5877 ] } },
{ "type": "Feature", "properties": { "OBJECTID": 144, "REF_ID": "REFON0156", "NAME": "CORUNNA (SARNIA MANUFACTURING CENTRE (SMC))", "ADDRESS": "150 ST. CLAIR PARKWAY", "CITY": "CORUNNA", "STATE": "ON", "ZIP": "N0N 1G0", "ZIP4": "NOT AVAILABLE", "TELEPHONE": "(519) 481-1100", "TYPE": "MEDIUM COMPLEX REFINERY", "STATUS": "IN SERVICE", "POPULATION": 350, "COUNTY": "NOT AVAILABLE", "COUNTYFIPS": "NOT APPLICABLE", "COUNTRY": "CAN", "LATITUDE": 42.90668, "LONGITUDE": -82.44486, "NAICS_CODE": "324110", "NAICS_DESC": "PETROLEUM REFINERIES", "SOURCE": "CAPP", "SOURCEDATE": "2017\/01\/01 00:00:00", "VAL_METHOD": "IMAGERY\/OTHER", "VAL_DATE": "2018\/01\/31 00:00:00", "WEBSITE": "http:\/\/www.shell.ca", "OWNER": "SHELL", "OPERNAME": "SHELL OIL PRODUCTS CANADA", "RMP_ID": "NOT APPLICABLE", "EPA_ID": "NOT APPLICABLE", "POSREL": "WITHIN 166 FEET", "CAPACITY": 75000, "US_RANK": -999, "CRUDE": 77000, "VACDIST": 25801, "COKING": -999, "THERMALOP": 5202, "CATCRACK": 20498, "CATREFORM": 20901, "CATHYDCRCK": 9800, "CATHYDTRT": 20599, "ALKY": 0, "POLDIM": 0, "AROMATIC": -999, "ISOMER": 0, "LUBES": 0, "OXYGENATES": 0, "HYDRGN": -999, "COKE": 0, "SULFUR": 352, "ASPHALT": 0 }, "geometry": { "type": "Point", "coordinates": [ -82.44486, 42.90668 ] } },
{ "type": "Feature", "properties": { "OBJECTID": 145, "REF_ID": "REFON0157", "NAME": "PETRO-CANADA LUBRICANTS (CLARKSON)", "ADDRESS": "2310 LAKESHORE ROAD WEST", "CITY": "MISSISSAUGA", "STATE": "ON", "ZIP": "L5J 1K2", "ZIP4": "NOT AVAILABLE", "TELEPHONE": "(905) 804-3600", "TYPE": "LUBRICANTS PLANT\/REFINERY", "STATUS": "IN SERVICE", "POPULATION": -999, "COUNTY": "NOT AVAILABLE", "COUNTYFIPS": "NOT APPLICABLE", "COUNTRY": "CAN", "LATITUDE": 43.50178, "LONGITUDE": -79.61003, "NAICS_CODE": "324110", "NAICS_DESC": "PETROLEUM REFINERIES", "SOURCE": "CAPP", "SOURCEDATE": "2017\/01\/01 00:00:00", "VAL_METHOD": "IMAGERY\/OTHER", "VAL_DATE": "2018\/01\/31 00:00:00", "WEBSITE": "http:\/\/www.hollyfrontier.com", "OWNER": "HOLLYFRONTIER CORP", "OPERNAME": "HOLLYFRONTIER REFINING LLC", "RMP_ID": "NOT APPLICABLE", "EPA_ID": "NOT APPLICABLE", "POSREL": "WITHIN 166 FEET", "CAPACITY": 15600, "US_RANK": -999, "CRUDE": 0, "VACDIST": 0, "COKING": -999, "THERMALOP": 0, "CATCRACK": 0, "CATREFORM": 8994, "CATHYDCRCK": 11951, "CATHYDTRT": 0, "ALKY": 0, "POLDIM": 0, "AROMATIC": -999, "ISOMER": 0, "LUBES": 15599, "OXYGENATES": 0, "HYDRGN": -999, "COKE": 0, "SULFUR": 75, "ASPHALT": 0 }, "geometry": { "type": "Point", "coordinates": [ -79.61003, 43.50178 ] } },
{ "type": "Feature", "properties": { "OBJECTID": 146, "REF_ID": "REFQC0158", "NAME": "MONTREAL", "ADDRESS": "11701 SHERBROOKE STREET EAST", "CITY": "MONTREAL", "STATE": "QC", "ZIP": "H1B 1C3", "ZIP4": "NOT AVAILABLE", "TELEPHONE": "(514) 640-8000", "TYPE": "MEDIUM COMPLEX REFINERY", "STATUS": "IN SERVICE", "POPULATION": 400, "COUNTY": "NOT AVAILABLE", "COUNTYFIPS": "NOT APPLICABLE", "COUNTRY": "CAN", "LATITUDE": 45.64297, "LONGITUDE": -73.52408, "NAICS_CODE": "324110", "NAICS_DESC": "PETROLEUM REFINERIES", "SOURCE": "CAPP", "SOURCEDATE": "2017\/01\/01 00:00:00", "VAL_METHOD": "IMAGERY\/OTHER", "VAL_DATE": "2018\/01\/31 00:00:00", "WEBSITE": "http:\/\/www.suncor.com", "OWNER": "SUNCOR", "OPERNAME": "SUNCOR ENERGY PRODUCTS PARTNERSHIP", "RMP_ID": "NOT APPLICABLE", "EPA_ID": "NOT APPLICABLE", "POSREL": "WITHIN 166 FEET", "CAPACITY": 137000, "US_RANK": -999, "CRUDE": 136998, "VACDIST": 53998, "COKING": -999, "THERMALOP": 0, "CATCRACK": 31996, "CATREFORM": 36003, "CATHYDCRCK": 22002, "CATHYDTRT": 121500, "ALKY": 4000, "POLDIM": 899, "AROMATIC": -999, "ISOMER": 0, "LUBES": 0, "OXYGENATES": 0, "HYDRGN": -999, "COKE": 0, "SULFUR": 0, "ASPHALT": 30002 }, "geometry": { "type": "Point", "coordinates": [ -73.52408, 45.64297 ] } },
{ "type": "Feature", "properties": { "OBJECTID": 147, "REF_ID": "REFON0159", "NAME": "SARNIA", "ADDRESS": "1900 ST. CLAIR PARKWAY", "CITY": "SARNIA", "STATE": "ON", "ZIP": "N7T 7H5", "ZIP4": "NOT AVAILABLE", "TELEPHONE": "(519) 337-2301", "TYPE": "MEDIUM COMPLEX REFINERY", "STATUS": "IN SERVICE", "POPULATION": -999, "COUNTY": "NOT AVAILABLE", "COUNTYFIPS": "NOT APPLICABLE", "COUNTRY": "CAN", "LATITUDE": 42.93098, "LONGITUDE": -82.43958, "NAICS_CODE": "324110", "NAICS_DESC": "PETROLEUM REFINERIES", "SOURCE": "CAPP", "SOURCEDATE": "2017\/01\/01 00:00:00", "VAL_METHOD": "IMAGERY\/OTHER", "VAL_DATE": "2018\/01\/31 00:00:00", "WEBSITE": "http:\/\/www.suncor.com", "OWNER": "SUNCOR", "OPERNAME": "SUNCOR ENERGY PRODUCTS PARTNERSHIP", "RMP_ID": "NOT APPLICABLE", "EPA_ID": "NOT APPLICABLE", "POSREL": "WITHIN 166 FEET", "CAPACITY": 85000, "US_RANK": -999, "CRUDE": 85001, "VACDIST": 26732, "COKING": -999, "THERMALOP": 0, "CATCRACK": 16668, "CATREFORM": 22958, "CATHYDCRCK": 32078, "CATHYDTRT": 102096, "ALKY": 5504, "POLDIM": 0, "AROMATIC": -999, "ISOMER": 0, "LUBES": 0, "OXYGENATES": 0, "HYDRGN": -999, "COKE": 0, "SULFUR": 1132, "ASPHALT": 0 }, "geometry": { "type": "Point", "coordinates": [ -82.43958, 42.93098 ] } },
{ "type": "Feature", "properties": { "OBJECTID": 148, "REF_ID": "REF480160", "NAME": "GALENA PARK SPLITTER", "ADDRESS": "407 CLINTON DR", "CITY": "GALENA PARK", "STATE": "TX", "ZIP": "77547", "ZIP4": "NOT AVAILABLE", "TELEPHONE": "(713) 420-5301", "TYPE": "CONDENSATE SPLITTER", "STATUS": "IN SERVICE", "POPULATION": -999, "COUNTY": "HARRIS", "COUNTYFIPS": "48201", "COUNTRY": "USA", "LATITUDE": 29.737676, "LONGITUDE": -95.218204, "NAICS_CODE": "324110", "NAICS_DESC": "PETROLEUM REFINERIES", "SOURCE": "EIA-820; EPA TRI", "SOURCEDATE": "2017\/01\/01 00:00:00", "VAL_METHOD": "IMAGERY\/OTHER", "VAL_DATE": "2018\/01\/31 00:00:00", "WEBSITE": "https:\/\/www.kindermorgan.com", "OWNER": "KINDER MORGAN ENERGY PTNRS LP", "OPERNAME": "KINDER MORGAN CRUDE & CONDENSATE", "RMP_ID": "1000048337", "EPA_ID": "100000225482", "POSREL": "WITHIN 166 FEET", "CAPACITY": 84000, "US_RANK": 78, "CRUDE": 84000, "VACDIST": 0, "COKING": 0, "THERMALOP": 0, "CATCRACK": 0, "CATREFORM": 0, "CATHYDCRCK": 0, "CATHYDTRT": 0, "ALKY": 0, "POLDIM": 0, "AROMATIC": 0, "ISOMER": 0, "LUBES": 0, "OXYGENATES": 0, "HYDRGN": 0, "COKE": 0, "SULFUR": 0, "ASPHALT": 0 }, "geometry": { "type": "Point", "coordinates": [ -95.218204, 29.737676 ] } },
{ "type": "Feature", "properties": { "OBJECTID": 149, "REF_ID": "REF480161", "NAME": "CORPUS CHRISTI", "ADDRESS": "7209 UP RIVER RD", "CITY": "CORPUS CHRISTI", "STATE": "TX", "ZIP": "78409", "ZIP4": "NOT AVAILABLE", "TELEPHONE": "(800) 422-2825", "TYPE": "CONDENSATE SPLITTER", "STATUS": "IN SERVICE", "POPULATION": -999, "COUNTY": "NUECES", "COUNTYFIPS": "48355", "COUNTRY": "USA", "LATITUDE": 27.81794, "LONGITUDE": -97.507191, "NAICS_CODE": "324110", "NAICS_DESC": "PETROLEUM REFINERIES", "SOURCE": "EIA-820; EPA TRI", "SOURCEDATE": "2017\/01\/01 00:00:00", "VAL_METHOD": "IMAGERY\/OTHER", "VAL_DATE": "2018\/01\/31 00:00:00", "WEBSITE": "http:\/\/www.buckeye.com\/", "OWNER": "BUCKEYE PARTNERS LP", "OPERNAME": "BUCKEYE TEXAS PROCESSING LLC", "RMP_ID": "1000060277", "EPA_ID": "100000227621", "POSREL": "WITHIN 166 FEET", "CAPACITY": 46250, "US_RANK": 100, "CRUDE": 46250, "VACDIST": 0, "COKING": 0, "THERMALOP": 0, "CATCRACK": 0, "CATREFORM": 0, "CATHYDCRCK": 0, "CATHYDTRT": 0, "ALKY": 0, "POLDIM": 0, "AROMATIC": 0, "ISOMER": 0, "LUBES": 0, "OXYGENATES": 0, "HYDRGN": 0, "COKE": 0, "SULFUR": 0, "ASPHALT": 0 }, "geometry": { "type": "Point", "coordinates": [ -97.507191, 27.81794 ] } },
{ "type": "Feature", "properties": { "OBJECTID": 150, "REF_ID": "REF480162", "NAME": "CORPUS CHRISTI CONDENSATE SPLITTER", "ADDRESS": "1802 POTH LN\/15 COUNTRY CLUB DRIVE", "CITY": "CORPUS CHRISTI", "STATE": "TX", "ZIP": "78408", "ZIP4": "NOT AVAILABLE", "TELEPHONE": "(361) 903-1100", "TYPE": "CONDENSATE SPLITTER", "STATUS": "IN SERVICE", "POPULATION": -999, "COUNTY": "NUECES", "COUNTYFIPS": "48355", "COUNTRY": "USA", "LATITUDE": 27.809312, "LONGITUDE": -97.436169, "NAICS_CODE": "324110", "NAICS_DESC": "PETROLEUM REFINERIES", "SOURCE": "EIA-820; EPA ENVIROFACTS", "SOURCEDATE": "2017\/01\/01 00:00:00", "VAL_METHOD": "IMAGERY\/OTHER", "VAL_DATE": "2018\/01\/31 00:00:00", "WEBSITE": "https:\/\/www.magellanlp.com\/", "OWNER": "MAGELLAN MIDSTREAM PARTNERS LP", "OPERNAME": "MAGELLAN TERMINAL HOLDINGS LP", "RMP_ID": "1000060844", "EPA_ID": "100000234007", "POSREL": "WITHIN 166 FEET", "CAPACITY": 42500, "US_RANK": 102, "CRUDE": 0, "VACDIST": 0, "COKING": 0, "THERMALOP": 0, "CATCRACK": 0, "CATREFORM": 0, "CATHYDCRCK": 0, "CATHYDTRT": 0, "ALKY": 0, "POLDIM": 0, "AROMATIC": 0, "ISOMER": 0, "LUBES": 0, "OXYGENATES": 0, "HYDRGN": 0, "COKE": 0, "SULFUR": 0, "ASPHALT": 0 }, "geometry": { "type": "Point", "coordinates": [ -97.436169, 27.809312 ] } },
{ "type": "Feature", "properties": { "OBJECTID": 151, "REF_ID": "REF480163", "NAME": "HOUSTON", "ADDRESS": "1519 SOUTH SHELDON RD", "CITY": "HOUSTON", "STATE": "TX", "ZIP": "77015", "ZIP4": "NOT AVAILABLE", "TELEPHONE": "(281) 695-9000", "TYPE": "CRUDE OIL FRACTIONATION", "STATUS": "IN SERVICE", "POPULATION": -999, "COUNTY": "HARRIS", "COUNTYFIPS": "48201", "COUNTRY": "USA", "LATITUDE": 29.751112, "LONGITUDE": -95.122762, "NAICS_CODE": "324110", "NAICS_DESC": "PETROLEUM REFINERIES", "SOURCE": "EIA-820; EPA TRI", "SOURCEDATE": "2017\/01\/01 00:00:00", "VAL_METHOD": "IMAGERY\/OTHER", "VAL_DATE": "2018\/01\/31 00:00:00", "WEBSITE": "http:\/\/www.petromaxrefining.com", "OWNER": "PETROMAX REFINING CO LLC", "OPERNAME": "PETROMAX REFINING CO LLC", "RMP_ID": "1000050637", "EPA_ID": "100000230083", "POSREL": "WITHIN 166 FEET", "CAPACITY": 25000, "US_RANK": 114, "CRUDE": 25000, "VACDIST": 0, "COKING": 0, "THERMALOP": 0, "CATCRACK": 0, "CATREFORM": 0, "CATHYDCRCK": 0, "CATHYDTRT": 0, "ALKY": 0, "POLDIM": 0, "AROMATIC": 0, "ISOMER": 0, "LUBES": 0, "OXYGENATES": 0, "HYDRGN": 0, "COKE": 0, "SULFUR": 0, "ASPHALT": 0 }, "geometry": { "type": "Point", "coordinates": [ -95.122762, 29.751112 ] } },
{ "type": "Feature", "properties": { "OBJECTID": 152, "REF_ID": "REF380164", "NAME": "DICKINSON", "ADDRESS": "3815 116TH AVE SW", "CITY": "DICKINSON", "STATE": "ND", "ZIP": "58601", "ZIP4": "NOT AVAILABLE", "TELEPHONE": "(701) 250-1954", "TYPE": "SMALL HIGHLY COMPLEX REFINERY", "STATUS": "IN SERVICE", "POPULATION": 90, "COUNTY": "STARK", "COUNTYFIPS": "38089", "COUNTRY": "USA", "LATITUDE": 46.855298, "LONGITUDE": -102.912698, "NAICS_CODE": "324110", "NAICS_DESC": "PETROLEUM REFINERIES", "SOURCE": "EIA-820; EPA TRI", "SOURCEDATE": "2020\/06\/18 00:00:00", "VAL_METHOD": "IMAGERY\/OTHER", "VAL_DATE": "2020\/06\/19 00:00:00", "WEBSITE": "https:\/\/www.marathonpetroleum.com", "OWNER": "MARATHON PETROLEUM CORP", "OPERNAME": "MARATHON PETROLEUM CO LP", "RMP_ID": "1000047699", "EPA_ID": "100000228032", "POSREL": "WITHIN 166 FEET", "CAPACITY": 20000, "US_RANK": 118, "CRUDE": 19500, "VACDIST": 0, "COKING": 0, "THERMALOP": 0, "CATCRACK": 0, "CATREFORM": 0, "CATHYDCRCK": 0, "CATHYDTRT": 8000, "ALKY": 0, "POLDIM": 0, "AROMATIC": 0, "ISOMER": 0, "LUBES": 0, "OXYGENATES": 0, "HYDRGN": 2, "COKE": 0, "SULFUR": 2, "ASPHALT": 0 }, "geometry": { "type": "Point", "coordinates": [ -102.912698, 46.855298 ] } },
{ "type": "Feature", "properties": { "OBJECTID": 153, "REF_ID": "REF220001", "NAME": "PELICAN - LAKE CHARLES", "ADDRESS": "4646 LA HWY 3059 (OLD TOWN ROAD)", "CITY": "LAKE CHARLES", "STATE": "LA", "ZIP": "70615", "ZIP4": "NOT AVAILABLE", "TELEPHONE": "(225) 927-2258", "TYPE": "MEDIUM SIZED MEDIUM COMPLEXITY REFINERY", "STATUS": "CLOSED", "POPULATION": 45, "COUNTY": "CALCASIEU", "COUNTYFIPS": "22019", "COUNTRY": "USA", "LATITUDE": 30.28776, "LONGITUDE": -93.14512, "NAICS_CODE": "324110", "NAICS_DESC": "PETROLEUM REFINERIES", "SOURCE": "EIA-820; EPA TRI", "SOURCEDATE": "2016\/01\/01 00:00:00", "VAL_METHOD": "IMAGERY\/OTHER", "VAL_DATE": "2016\/03\/10 00:00:00", "WEBSITE": "http:\/\/pelican-refinery.com\/", "OWNER": "PELICAN REFINING COMPANY LLC", "OPERNAME": "PELICAN REFINING COMPANY LLC", "RMP_ID": "11099", "EPA_ID": "100000085221", "POSREL": "WITHIN 166 FEET", "CAPACITY": 0, "US_RANK": -999, "CRUDE": 0, "VACDIST": 12000, "COKING": 0, "THERMALOP": 0, "CATCRACK": 0, "CATREFORM": 0, "CATHYDCRCK": 0, "CATHYDTRT": 0, "ALKY": 0, "POLDIM": 0, "AROMATIC": 0, "ISOMER": 0, "LUBES": 0, "OXYGENATES": 0, "HYDRGN": 0, "COKE": 0, "SULFUR": 0, "ASPHALT": 6000 }, "geometry": { "type": "Point", "coordinates": [ -93.14512, 30.28776 ] } },
{ "type": "Feature", "properties": { "OBJECTID": 155, "REF_ID": "REF480136", "NAME": "TRIGEANT PETROLEUM - CORPUS CHRISTI", "ADDRESS": "6600 UP RIVER ROAD", "CITY": "CORPUS CHRISTI", "STATE": "TX", "ZIP": "78409", "ZIP4": "NOT AVAILABLE", "TELEPHONE": "(832) 426-3302", "TYPE": "ASPHALT REFINERY", "STATUS": "CLOSED", "POPULATION": -999, "COUNTY": "NUECES", "COUNTYFIPS": "48355", "COUNTRY": "USA", "LATITUDE": 27.81738, "LONGITUDE": -97.49173, "NAICS_CODE": "324110", "NAICS_DESC": "PETROLEUM REFINERIES", "SOURCE": "EIA-820; EPA TRI", "SOURCEDATE": "2016\/01\/01 00:00:00", "VAL_METHOD": "IMAGERY\/OTHER", "VAL_DATE": "2016\/03\/10 00:00:00", "WEBSITE": "http:\/\/www.pinoakcorpus.com\/", "OWNER": "BTB REFINING LLC (GRAVITY)", "OPERNAME": "TRIGEANT PETROLEUM LTD", "RMP_ID": "NOT AVAILABLE", "EPA_ID": "NOT AVAILABLE", "POSREL": "WITHIN 166 FEET", "CAPACITY": 0, "US_RANK": -999, "CRUDE": 0, "VACDIST": 29000, "COKING": 0, "THERMALOP": 0, "CATCRACK": 0, "CATREFORM": 0, "CATHYDCRCK": 0, "CATHYDTRT": 0, "ALKY": 0, "POLDIM": 0, "AROMATIC": 0, "ISOMER": 0, "LUBES": 0, "OXYGENATES": 0, "HYDRGN": 0, "COKE": 0, "SULFUR": 0, "ASPHALT": 16000 }, "geometry": { "type": "Point", "coordinates": [ -97.49173, 27.81738 ] } },
{ "type": "Feature", "properties": { "OBJECTID": 156, "REF_ID": "REF560140", "NAME": "ANTELOPE REFINING - DOUGLAS", "ADDRESS": "2070 STATE HIGHWAY 59", "CITY": "DOUGLAS", "STATE": "WY", "ZIP": "82633", "ZIP4": "9724", "TELEPHONE": "(307) 358-5711", "TYPE": "VERY SMALL SIMPLE REFINERY", "STATUS": "CLOSED", "POPULATION": -999, "COUNTY": "CONVERSE", "COUNTYFIPS": "56009", "COUNTRY": "USA", "LATITUDE": 43.01965, "LONGITUDE": -105.26072, "NAICS_CODE": "324110", "NAICS_DESC": "PETROLEUM REFINERIES", "SOURCE": "EIA-820", "SOURCEDATE": "2016\/01\/01 00:00:00", "VAL_METHOD": "IMAGERY\/OTHER", "VAL_DATE": "2016\/03\/10 00:00:00", "WEBSITE": "http:\/\/www.genesisenergy.com\/", "OWNER": "GENESIS ENERGY LP", "OPERNAME": "ANTELOPE REFINING LLC", "RMP_ID": "NOT AVAILABLE", "EPA_ID": "NOT AVAILABLE", "POSREL": "WITHIN 166 FEET", "CAPACITY": 3800, "US_RANK": -999, "CRUDE": 3800, "VACDIST": 3500, "COKING": 0, "THERMALOP": 0, "CATCRACK": 0, "CATREFORM": 0, "CATHYDCRCK": 0, "CATHYDTRT": 0, "ALKY": 0, "POLDIM": 0, "AROMATIC": 0, "ISOMER": 0, "LUBES": 0, "OXYGENATES": 0, "HYDRGN": 0, "COKE": 0, "SULFUR": 0, "ASPHALT": 0 }, "geometry": { "type": "Point", "coordinates": [ -105.26072, 43.01965 ] } },
{ "type": "Feature", "properties": { "OBJECTID": 157, "REF_ID": "REF060165", "NAME": "SANTA MARIA", "ADDRESS": "2555 WILLOW ROAD", "CITY": "ARROYO GRANDE", "STATE": "CA", "ZIP": "93420", "ZIP4": "5731", "TELEPHONE": "(805) 343-1776", "TYPE": "SMALL COMPLEX REFINERY", "STATUS": "IN SERVICE", "POPULATION": 140, "COUNTY": "SAN LUIS OBISPO", "COUNTYFIPS": "06079", "COUNTRY": "USA", "LATITUDE": 35.038719835000052, "LONGITUDE": -120.58953938499997, "NAICS_CODE": "324110", "NAICS_DESC": "PETROLEUM REFINERIES", "SOURCE": "EPA-TRI, CALIFORNIA ENERGY COMMISSION", "SOURCEDATE": "2020\/06\/02 00:00:00", "VAL_METHOD": "IMAGERY\/OTHER", "VAL_DATE": "2020\/06\/22 00:00:00", "WEBSITE": "https:\/\/www.phillips66.com\/", "OWNER": "PHILLIPS 66 COMPANY", "OPERNAME": "PHILLIPS 66 COMPANY", "RMP_ID": "1000059994", "EPA_ID": "100000137611", "POSREL": "WITHIN 40 FEET", "CAPACITY": 41800, "US_RANK": -999, "CRUDE": 41800, "VACDIST": -999, "COKING": -999, "THERMALOP": -999, "CATCRACK": -999, "CATREFORM": -999, "CATHYDCRCK": -999, "CATHYDTRT": -999, "ALKY": -999, "POLDIM": -999, "AROMATIC": -999, "ISOMER": -999, "LUBES": -999, "OXYGENATES": -999, "HYDRGN": -999, "COKE": -999, "SULFUR": -999, "ASPHALT": -999 }, "geometry": { "type": "Point", "coordinates": [ -120.589539384999966, 35.038719835000052 ] } }
]
}
